INDEX,ADDRESS,ADMINISTRATOR,CITY,FACILITY_TYPE,NAME,PHONE,ST,ZIP,OWNER,lat,long
0,1915 Wesley Rd,Thaddeus Weghorst,Auburn,Birthing Center,Auburn Birthing Center Llc,(260)927-0035,IN,46706,,41.3716287,-85.0300434
1,2521 E Market St,Jamie Yoder,Nappanee,Birthing Center,"Blessed Beginnings Care Center, Inc",(574)773-7755,IN,46550,,39.76880625,-86.15345077251979
2,9835 Auburn Road,Marianne Stroud,Fort Wayne,Birthing Center,Holy Family Birth Center,(260)222-7406,IN,46825,,41.1735874,-85.1149501
3,"6620 Parkdale Place, Suite K",Angela Lyttle,Indianapolis,Birthing Center,Indiana Birth Center West Llc,(317)437-3681,IN,46254,,39.8264165,-86.27687938675676
4,7980 W 100 S,Jamie Yoder,Topeka,Birthing Center,New Eden Care Center Inc,(260)768-4401,IN,46571,,51.5105048,-0.1206359
5,7950 N Shadeland Ave Suite 400,,Indianapolis,Birthing Center,Sacred Roots Birth Center Northeast,(317)437-3681,IN,46250,,39.898906713367,-86.046165252965
6,1214 Spring St,Elizabeth Quinkert,Jeffersonville,Birthing Center,Tree Of Life Birth Center,(812)920-1580,IN,47130,,38.328749,-85.69956074724215
7,29 South Stockwell Rd,,Evansville,Blood Center,American National Red Cross Evansville,(812)471-7207,IN,47714,,12.9413694,77.6088716
8,2715 Emerson Drive,,Elkhart,Blood Center,Biolife Plasma Services,(574)264-7204,IN,46514,,41.72492896909796,-85.98108036874203
9,8050 Rockville Road,,Indianapolis,Blood Center,Biolife Plasma Services,(317)378-8294,IN,46214,,39.7642467,-86.303462
10,7921 Coldwater Road,,Fort Wayne,Blood Center,Biolife Plasma Services Lp,(260)489-8215,IN,46825,,41.1520663,-85.1372423
11,1565 South Liberty Dr,,Bloomington,Blood Center,Biolife Plasma Services Lp,(812)334-1405,IN,47403,,39.153038,-86.5741927
12,111 East Alto Road,,Kokomo,Blood Center,Biolife Plasma Services Lp,(765)453-5670,IN,46902,,40.46931505,-86.1301357
13,1450 Getz Road,,Fort Wayne,Blood Center,Biolife Plasma Services Lp,(260)434-1922,IN,46804,,41.0720483,-85.2195612
14,3401 North Marleon Drive,,Muncie,Blood Center,Biolife Plasma Services Lp,(765)288-2699,IN,47304,,40.2218161,-85.46521212388326
15,1138 North Emerson Ave,,Greenwood,Blood Center,Biolife Plasma Services Lp,(317)883-3839,IN,46143,,41.0884295,-85.1258071
16,1132 Locust Street,,Terre Haute,Blood Center,"Biomat Usa, Inc",(812)645-0016,IN,47807,,39.4776149,-87.4004327
17,"5341 E Thompson Rd,",,Indianapolis,Blood Center,"Biomat Usa, Inc",(317)974-9494,IN,46237,,39.689779650000006,-86.05585634487525
18,3533 S Scatterfield Rd,,Anderson,Blood Center,"Biomat Usa, Inc",(765)649-3900,IN,46013,,40.0550305,-85.652953
19,3620 North Post Road,,Indianapolis,Blood Center,"Biomat Usa, Inc",(317)890-8997,IN,46226,,39.8226839,-86.01060227530076
20,7320 Broadway Avenue,,Merrillville,Blood Center,"Biomat Usa, Inc",(219)769-7705,IN,46410,,41.485214676972,-87.336087676994
21,110 W Ridge Rd,,Griffith,Blood Center,"Biomat Usa, Inc",(219)513-4222,IN,46319,,39.450405,-86.5730759
22,1901 Western Ave,,South Bend,Blood Center,Bm South Bend In - Western,(574)234-6010,IN,46619,,47.609776,-122.3432257
23,4150 Grape Rd Suite B,,Mishawaka,Blood Center,Csl Plasma,(574)314-9277,IN,46545,,13.0298601,77.63041634999999
24,5550 E Washington Street,,Indianapolis,Blood Center,Csl Plasma Inc,(317)352-9157,IN,46219,,39.75977475,-86.07155863753542
25,400 Brown Street,,West Lafayette,Blood Center,Csl Plasma Inc,(765)743-9665,IN,47906,,40.5105534,-86.8425023
26,2750 E 46Th Street,,Indianapolis,Blood Center,Csl Plasma Inc,(317)622-5058,IN,46205,,39.806649699999994,-86.1371915
27,59 Southland Shopping Center,,Terre Haute,Blood Center,"Csl Plasma, Inc",(812)233-3944,IN,47802,,39.43324483060578,-87.40793142869668
28,108 East Pettit Avenue,,Fort Wayne,Blood Center,"Csl Plasma, Inc",(260)454-5083,IN,46806,,41.036938,-85.135584
29,"5905 Madison Ave, Suite E",,Indianapolis,Blood Center,"Csl Plasma, Inc",(317)808-5998,IN,46227,,39.680674800000006,-86.12954997622137
30,2000 Center Drive,,Evansville,Blood Center,"Csl Plasma, Inc",(812)473-7014,IN,47711,,38.6701019,-121.5046585
31,312 West Highway 20,,Michigan City,Blood Center,"Csl Plasma, Inc",(219)268-6284,IN,46360,,41.68289275,-86.25443565
32,2029 W Washington St,,Indianapolis,Blood Center,"Csl Plasma, Inc",(463)276-6021,IN,46222,,39.76568255,-86.19618230262643
33,4025 W 3Rd St,,Bloomington,Blood Center,"Csl Plasma, Inc",(812)558-2257,IN,47404,,39.21651,-86.58463611463046
34,7750 E Ridge Rd,,Hobart,Blood Center,"Csl Plasma, Inc",(219)484-2099,IN,46342,,39.450405,-86.5730759
35,1321 S Madison St,,Muncie,Blood Center,"Csl Plasma, Inc",(765)273-4130,IN,47302,,40.1624531,-85.7260804
36,1810 N First Ave,,Evansville,Blood Center,"Evansville Octapharma Plasma, Inc",(812)463-6162,IN,47710,,41.0922566,-85.1233646
37,3902 S Madison Avenue,,Indianapolis,Blood Center,Grifols Bio Supplies Inc,(317)786-4470,IN,46227,,39.709854,-86.1145295
38,1665 E 10Th Street,,Jeffersonville,Blood Center,"Immunotek Bio Centers, Llc",(812)850-3126,IN,47130,,19.1718449,73.11271955000001
39,2608 N 6Th St,,Vincennes,Blood Center,Join Parachute - Vincennes,(812)416-5640,IN,47591,,38.6906683,-87.5032328
40,699 Creekview Dr,,Columbus,Blood Center,Join Parachute- Columbus,(812)416-5891,IN,47201,,39.20521268030484,-85.88410172502049
41,3859 W Washington St,,Indianapolis,Blood Center,Kedplasma Llc,(463)271-2650,IN,46241,,39.75886085,-86.22791417861919
42,8807 E Washington Street,,Indianapolis,Blood Center,Octapharma Plasma Center,(317)897-8044,IN,46219,,39.78767795,-86.01310705018699
43,2102 South Michigan St,,South Bend,Blood Center,"Octapharma Plasma, Inc",(574)234-9568,IN,46613,,41.65231115,-86.24928801417562
44,2660 Lafayette Road,,Indianapolis,Blood Center,"Octapharma Plasma, Inc",(317)664-7491,IN,46222,,39.803881399999995,-86.215629761102
45,115 Walnut St,,Terre Haute,Blood Center,"Octapharma Plasma, Inc",(812)234-0501,IN,47805,,39.089715,-94.41488223780965
46,3355 Douglas Rd,,South Bend,Blood Center,South Bend Medical Foundation,(574)234-4176,IN,46635,,41.7091673,-86.2057662
47,1212 East California Rd,,Fort Wayne,Blood Center,The American National Red Cross,(260)399-8545,IN,46825,,41.1184382,-85.1240497
48,2126 45Th Street,,Highland,Blood Center,"Versiti Illinois, Inc",(219)922-1942,IN,46322,,41.5376824,-87.4777617
49,3450 N Meridian St,,Indianapolis,Blood Center,"Versiti Indiana, Inc",(317)916-5150,IN,46208,,39.8187742,-86.1572144
50,11903 E Welland Street,,Indianapolis,Home Health,A Passionate Helping Hand Home Health Care Llc,,IN,46229,,39.77847535,-85.95551245029681
51,5475 Broadway,Britney Bynum,Merrillville,Home Health,Ab Home Health  Llc,(800)318-2900,IN,46410,,41.50888774990725,-87.33604673436577
52,3645 N Briarwood Ln  Ste D,Peggy Grueneier,Muncie,Home Health,Access To Care Llc,(765)282-4766,IN,47304,,40.221906093759166,-85.42830093014592
53,"2600 Roosevelt Rd, Ste 200-1",,Valparaiso,Home Health,Aveanna Healthcare,,IN,46383,,41.491738394469,-87.046432968966
54,7400 N Shadeland Ave,,Indianapolis,Home Health,"Altra Homecare Group, Llc",,IN,46250,,39.89217655,-86.04611195
55,"330 West Us Hwy 30, Suite B",Tina Gonterman,Valparaiso,Home Health,Bayada Pediatrics,(219)462-1718,IN,46385,,40.756460149999995,-73.99252248791056
56,"9521 Indianapolis Blvd, Suite O",Tracy Overla,Highland,Home Health,Brightstar Of Lake County Indiana,(219)924-0200,IN,46322,,39.757919799999996,-86.1595095814074
57,2701 Beech Street Suite E,Valerie Lijana-Hinch,Valparaiso,Home Health,Brightstar Of Valparaiso,(219)299-2319,IN,46383,,32.2272547,-101.46977193006514
58,6213 Royal Gate Pl,Pardeep Gill,Indianapolis,Home Health,Care4U Home Health Services Inc,(317)567-3448,IN,46237,,39.642612650000004,-86.05944441680575
59,"6801 Lake Plaza Drive, Suite A-102",Kayce Williams,Indianapolis,Home Health,Cnscares,(317)939-5027,IN,46220,,39.87984555,-86.0687169902883
60,1909 South Heaton Street,Carolyn Krause,Knox,Home Health,Community Home Care Services Inc,(574)772-3157,IN,46534,,41.277711100000005,-86.6206709
61,6720 East State Boulevard,Mayokun Adeyale,Fort Wayne,Home Health,"Compassionate Health Services, Llc",(260)494-5844,IN,46815,,41.101922,-85.055873
62,2310 N Wayne Street Ste D,Brandie Landis,Angola,Home Health,Crossroads Home Care Inc,(260)665-7123,IN,46703,,41.662784155153,-84.999485489375
63,1815 South Plate Street,,Kokomo,Home Health,Comfort Home Health Llc,,IN,46902,,40.4655335,-86.11640055600489
64,1815 S Plate St,,Kokomo,Home Health,Comfort Home Health Llc,,IN,46902,,40.4655335,-86.11640055600489
65,498 1/2 W Eads Parkway  Suite D,Cheryl Schwab,Lawrenceburg,Home Health,Energy Employee Services Llc,(513)720-2539,IN,47025,,33.7708415,-84.599325539375
66,213 Us 231,Lori Persohn,Jasper,Home Health,Family Palliative Care,(812)996-0674,IN,47546,,38.389156,-86.9415595
67,103 E Warren Street Po Box 4,Amy Manifold,Middlebury,Home Health,Firefly Home Health Llc,(574)797-0182,IN,46540,,41.6514269,-85.7048446
68,8505 Woodfield Crossing Blvd,Rita Shew,Indianapolis,Home Health,Five Star Home Health Inc,(317)786-8701,IN,46240,,39.9107998,-86.1099254
69,419 N Wayne Street,,Angola,Home Health,Home Sweet Home Health Care Llc,,IN,46703,,43.4795932,-80.5424271
70,7318 Crossing Place,,Fishers,Home Health,Independent Home Health Care Llc,,IN,46038,,39.960252606685074,-86.0399034013919
71,8765 Guion Rd Ste E,Julia Millard,Indianapolis,Home Health,Kabafusion In  Llc,(317)870-2090,IN,46268,,39.91394055,-86.22931109794774
72,800 N Bell Trace Cir,Jennifer Norris,Bloomington,Home Health,Lifespan Home Health Llc,(812)332-2355,IN,47408,,39.16978305,-86.49023223994253
73,205 Franciscan Dr,Cathy Wood,Crown Point,Home Health,Majestic Care Home Health,(219)661-5100,IN,46307,,41.3983491,-87.3676311
74,1208 W White River Blvd Ste 139,Rhonda Thorpe,Muncie,Home Health,No Place Like Home Home Health Care Llc,(765)393-2798,IN,47303,,40.16197960853761,-85.33996084731542
75,2118 Inwood Drive  Suite 106,Antonio Carreon,Fort Wayne,Home Health,One Purpose Senior Healthcare Llc,(260)702-9888,IN,46815,,41.0962337,-85.0870252
76,1829 E Spring St,Leigh Underhill,New Albany,Home Health,Option Care,(800)304-0123,IN,47150,,36.5698965,-115.70329407710281
77,867 W Carmel Dr,Nikki Himmel,Carmel,Home Health,Option Care,(866)846-3979,IN,46032,,39.95530865,-86.16630440162524
78,7440 Woodland Drive Ste 01-106,Karen Hoover,Indianapolis,Home Health,"Optum Infusion Services 305, Llc",(260)460-1753,IN,46278,,39.88843385,-86.26830398057061
79,48 North Emerson Avenue Suite 300,Keri Johnson,Greenwood,Home Health,Pentec Health Inc,(317)807-1551,IN,46143,,39.616448099553,-86.082741996842
80,7202 N Shadeland Ave Suite 127,Paula Puntenney,Indianapolis,Home Health,Perfect Health Care Services Inc,(317)360-9200,IN,46250,,42.5706167,-87.95566625000001
81,3303 Pines Village Cir,Deborah Medina,Valparaiso,Home Health,Pines Village Home Health Care,(219)465-1591,IN,46383,,41.49847066003358,-87.04506090305836
82,219 Walnut Street,Michaelene Oates,Lawrenceburg,Home Health,"Professional Case Management Of Indiana, Llc",(812)252-4645,IN,47025,,39.08964709999999,-94.4123819
83,6370 Robin Run W,Stephanie Blevins,Indianapolis,Home Health,Robin Run Health Center,(317)293-5500,IN,46268,,39.8719429,-86.25312252456632
84,813 Westfield Rd Suite 200,Christina Davis,Noblesville,Home Health,"Simply Home Health, Llc",(317)219-6012,IN,46062,,40.046909419325,-86.029818268628
85,325 Walnut Street,Haley Lane,Lawrenceburg,Home Health,"United Energy Workers Healthcare, Corp",(812)577-0774,IN,47025,,39.0895524,-94.41064469009399
86,1037 Sheffield Ave,Joseph Olusola,Dyer,Home Health,"We Care Home Health Agency, Llc",(219)595-0702,IN,46311,,39.78176775,-86.1978602748599
87,2040 Washington Avenue,Kasey White,Evansville,Home Health,Welcome Home Health Care Inc,(812)491-2273,IN,47714,,38.89939685,-77.03051222530138
88,2725 E 56Th St,Erica Engleman,Indianapolis,Home Health,Woods Home Healthcare Llc,(317)279-6363,IN,46220,,40.4022335,-96.1852529749947
89,1930 Edison Road,,South Bend,Hospice,Ascent Hospice Llc,(574)213-2727,IN,46617,,39.672981199999995,-86.19506768774892
90,5265 Commerce Blvd.,,Crown Point,Hospice,Heartland Hospice Services Of Nw In,,IN,46307,,41.47416708296,-87.40013818579
91,1015 Michigan Ave,Carrie Cadwell,Logansport,Hospital,4C Health,(574)722-5151,IN,46947,,40.762161199999994,-86.36338480401064
92,53131 Quince Rd,Mark Waltz,South Bend,Hospital,A Rosie Place,(574)235-8899,IN,46628,,41.720046,-86.3814643
93,1100 Mercer Ave,Scott Smith,Decatur,Hospital,Adams Memorial Hospital,(260)724-2145,IN,46733,,40.8165996,-84.91433173953473
94,2015 Jackson St,Parveen Chand,Anderson,Hospital,Ascension St Vincent Anderson,(765)646-8238,IN,46016,,40.0959152,-85.6802848300378
95,13500 N Meridian St,Parveen Chand,Carmel,Hospital,Ascension St Vincent Carmel,(317)582-7901,IN,46032,,39.9821348,-86.14595489083862
96,1206 E National Ave,Jamie Webster,Brazil,Hospital,Ascension St Vincent Clay,(812)442-2500,IN,47834,,39.5288684,-87.11129780414319
97,3700 Washington Ave,Alexander Chang,Evansville,Hospital,Ascension St Vincent Evansville,(812)485-4000,IN,47750,,37.9657196,-87.50416259300508
98,13861 Olio Road,Parveen Chand,Fishers,Hospital,Ascension St Vincent Fishers,(317)415-9000,IN,46037,,39.9892412,-85.9165248
99,10580 N Meridian St,Lori Shannon,Carmel,Hospital,Ascension St Vincent Heart Center,(317)583-5000,IN,46290,,39.9398724,-86.1589895
100,2001 W 86Th St,Dan Parod,Indianapolis,Hospital,Ascension St Vincent Hospital,(317)338-7000,IN,46260,,39.91184955,-86.1984564
101,301 Henry St,Christina Crank,North Vernon,Hospital,Ascension St Vincent Jennings,(812)352-4228,IN,47265,,39.0103129,-85.64108477280786
102,1907 W Sycamore St,Parveen Chand,Kokomo,Hospital,Ascension St Vincent Kokomo,(765)452-5611,IN,46904,,40.3600366,-87.4344604
103,1331 S A St,Ann Yates,Elwood,Hospital,Ascension St Vincent Mercy,(765)552-4743,IN,46036,,40.2755091,-85.84376813357535
104,473 E Greenville Ave,Shelley Miller,Winchester,Hospital,Ascension St Vincent Randolph,(765)584-0004,IN,47394,,40.16897075,-84.9690476082717
105,911 N Shelby St,Donna Cassidy,Salem,Hospital,Ascension St Vincent Salem,(812)883-5881,IN,47167,,38.613387,-86.10730540552507
106,8050 Township Line Rd,Joel Feldman,Indianapolis,Hospital,Ascension St Vincent Seton Specialty Hospital,(317)415-8500,IN,46260,,39.901486750000004,-86.20445980322773
107,1116 Millis Ave,Alexander Chang,Boonville,Hospital,Ascension St Vincent Warrick,(812)897-4800,IN,47601,,38.0421806,-87.2628586
108,412 N Monroe St,Trina Marlatt,Williamsport,Hospital,Ascension St Vincent Williamsport,(765)762-4001,IN,47993,,40.290214500000005,-87.29656860304492
109,900 North High School Road,Marti Tolliver,Indianapolis,Hospital,Assurance Health Psychiatric Hospital,(317)982-3715,IN,46214,,39.7776228,-86.273254
110,1850 State St,Michael Schroyer,New Albany,Hospital,Baptist Health Floyd,(812)944-7701,IN,47150,,38.301249,-85.8339081621545
111,3600 N Prow Rd,Christine Schultz,Bloomington,Hospital,Bloomington Meadows Hospital,(812)331-8000,IN,47404,,39.20605315,-86.55098737289987
112,3050 N Lintel Drive,Andrew Keen,Bloomington,Hospital,Bloomington Regional Rehabilitation Hospital Llc,(812)336-2815,IN,47404,,39.2025645,-86.5905282
113,303 S Main St,Julie Thompson,Bluffton,Hospital,Bluffton Regional Medical Center,(260)824-3210,IN,46714,,40.7374197,-85.17083680105787
114,4488 Roslin Rd,John Strachan,Newburgh,Hospital,Brentwood Springs,(812)858-7200,IN,47630,,37.992979250000005,-87.33168074074511
115,1612 Blackiston View Drive,Rosa Mcgowen,Clarksville,Hospital,Brightwell Behavioral Health,(574)339-3094,IN,47129,,38.3203711,-85.7673302
116,416 E Maumee St,Angela Logan,Angola,Hospital,Cameron Health,(260)665-2141,IN,46703,,41.6341523,-84.99482822362532
117,2401 W University Ave 5Th Floor East Tower,Candace Moehringer,Muncie,Hospital,Central Indiana  Amg Specialty Hospital Llc,(765)751-5253,IN,47303,,40.197546875283,-85.414092694866
118,2400 E 17Th St,Jacob Baker,Columbus,Hospital,Columbus Regional Hospital,(812)379-4441,IN,47201,,39.21817825,-85.89501240807752
119,8102 Clearvista Parkway,Cathy Boggs,Indianapolis,Hospital,Community Fairbanks Recovery Center,(317)849-8222,IN,46256,,39.9028231,-86.040818
120,607 South Greenwood Springs Drive,Michelle Russell,Greenwood,Hospital,Community Health Network Rehabilitation Hosp So,(317)215-3808,IN,46143,,39.6281387,-86.0755379
121,7343 Clearvista Drive,Roxanne Stacy,Indianapolis,Hospital,Community Health Network Rehabilitation Hospital,(317)585-5400,IN,46256,,39.90068512684237,-86.04545245639935
122,901 Macarthur Blvd,Randy Neiswonger,Munster,Hospital,Community Hospital,(219)836-1600,IN,46321,,41.55062755,-87.50600319701695
123,1500 N Ritter Ave,Elizabeth Tharp,Indianapolis,Hospital,Community Hospital East,(317)355-5411,IN,46219,,39.786264349999996,-86.07562054979486
124,7150 Clearvista Dr,Elizabeth Tharp,Indianapolis,Hospital,Community Hospital North,(317)621-5335,IN,46256,,39.9010217,-86.04089111289873
125,1515 N Madison Ave,Elizabeth Tharp,Anderson,Hospital,Community Hospital Of Anderson And Madison County,(765)298-4242,IN,46011,,40.1325666,-85.69753073626445
126,1020 High Rd,David Bailey,Bremen,Hospital,Community Hospital Of Bremen Inc,(574)546-2211,IN,46506,,41.45606375,-86.158653255123
127,1402 E County Line Rd S,Elizabeth Tharp,Indianapolis,Hospital,Community Hospital South,(317)887-7000,IN,46227,,39.63728905,-86.13248842133666
128,3500 S Lafountain St,Elizabeth Tharp,Kokomo,Hospital,Community Howard Regional Health Inc,(765)776-8000,IN,46902,,40.44719395,-86.1242088668685
129,8920 E 56Th Street,Catherine Middleton,Brownsburg,Hospital,Community Rehabilitation Hospital West,(463)348-7000,IN,46112,,25.71625985,-80.33961712841955
130,1314 E Walnut St,Dana Muntz,Washington,Hospital,Daviess Community Hospital,(812)254-2760,IN,47501,,38.65937665,-87.15976061477349
131,1808 Sherman Dr,Claudia Eisenmann,Princeton,Hospital,Deaconess Gibson Hospital,(812)385-3401,IN,47670,,38.3608678,-87.5901655298976
132,600 Mary St,Shawn Mccoy,Evansville,Hospital,Deaconess Hospital Inc,(812)450-5000,IN,47710,,37.98385435,-87.57142630334626
133,720 N Lincoln St,Rex Mckinney,Greensburg,Hospital,Decatur County Memorial Hospital,(812)663-4331,IN,47240,,39.344366300000004,-85.47807963647904
134,417 S Whitlock St,Matthew Sons,Bremen,Hospital,Doctors Neuropsychiatric Hospital,(574)546-0330,IN,46506,,41.443335,-86.1503194
135,275 W 12Th St,David Brooks,Peru,Hospital,Dukes Memorial Hospital,(765)472-8000,IN,46970,,40.75680505,-86.08234605740742
136,2520 E Dupont Rd,Brent Parsons,Fort Wayne,Hospital,Dupont Hospital Llc,(260)416-3000,IN,46825,,41.175138149999995,-85.1088394379203
137,600 E Blvd,Carl Risk,Elkhart,Hospital,Elkhart General Hospital,(574)294-2621,IN,46514,,41.6788543,-85.99345506913818
138,9355 Warrick Trail,Blake Bunner,Newburgh,Hospital,Encompass Health Deaconess Rehabilitation Hospital,(812)476-9983,IN,47630,,37.9785544,-87.42002238116854
139,720 Eskenazi Avenue,Lisa Harris,Indianapolis,Hospital,Eskenazi Health,(317)880-4818,IN,46202,,39.77820945,-86.18436603942047
140,3300 E Morgan Ave,Carlene Oliver,Evansville,Hospital,Evansville Psychiatric Children's Center,(812)477-6436,IN,47715,,37.993908,-87.5090659
141,3400 Lincoln Avenue,Cathe Fulcher,Evansville,Hospital,Evansville State Hospital,(812)469-6800,IN,47714,,37.972745450000005,-87.50303887440447
142,1710 Lafayette Rd,Terrence Klein,Crawfordsville,Hospital,Franciscan Health Crawfordsville,(765)362-2800,IN,47933,,40.06627975,-86.9060077804393
143,12750 Saint Francis Drive,Barbara Anderson,Crown Point,Hospital,Franciscan Health Crown Point,(219)757-6100,IN,46307,,41.387770149999994,-87.32298946413013
144,24 Joliet St,Dean Mazzoni,Dyer,Hospital,Franciscan Health Dyer,(219)865-2141,IN,46311,,41.4944717,-87.5255176
145,8111 S Emerson Ave,Lori Price,Indianapolis,Hospital,Franciscan Health Indianapolis,(317)528-5000,IN,46237,,39.64839485,-86.078781935364
146,1701 S Creasy Ln,Terrance Wilson,Lafayette,Hospital,Franciscan Health Lafayette,(765)502-4334,IN,47905,,40.3941518,-86.83489895104816
147,3500 Franciscan Way,Dean Mazzoni,Michigan City,Hospital,Franciscan Health Michigan City,(219)879-8511,IN,46360,,41.6600623,-86.8977120958948
148,1201 Hadley Rd,Lori Price,Mooresville,Hospital,Franciscan Health Mooresville,(317)831-1160,IN,46158,,39.6071477,-86.35571359811001
149,701 Superior Ave,Dean Mazzoni,Munster,Hospital,Franciscan Health Munster,(219)922-4200,IN,46321,,41.537994,-87.51210562766485
150,10777 Illinois Street,Lori Price,Carmel,Hospital,Franciscan Health Orthopedic Hospital Carmel,(317)528-5400,IN,46032,,39.98196131451585,-86.15425275176541
151,1104 E Grace St,Terrance Wilson,Rensselaer,Hospital,"Franciscan Health Rensselaer, Inc",(219)866-5141,IN,47978,,40.93430225,-87.13901628510857
152,520 S 7Th St,Robert Mclin,Vincennes,Hospital,Good Samaritan Hospital,(812)882-5220,IN,47591,,38.6724281,-87.5335798
153,200 High Park Ave,Randal Christophel,Goshen,Hospital,Goshen Hospital,(574)364-1000,IN,46526,,41.56337705,-85.83049135667174
154,505 Wabash Ave,Paul Kuczora,Marion,Hospital,"Grant-Blackford Mental Health, Inc",(765)662-3971,IN,46952,,40.57843823477575,-85.6769117516706
155,1185 N 1000 W,Brenda Reetz,Linton,Hospital,Greene County General Hospital,(812)847-2281,IN,47441,,39.0395837,-87.1292062
156,620 8Th Ave,Melvin Burks,Terre Haute,Hospital,Hamilton Center Inc,(812)231-8285,IN,47804,,39.484768700000004,-87.41619025
157,801 N State St,Stephen Long,Greenfield,Hospital,Hancock Regional Hospital,(317)462-5544,IN,46140,,39.79473585,-85.76743396214428
158,1141 Hospital Dr Nw,Lisa Clunie,Corydon,Hospital,Harrison County Hospital,(812)738-4251,IN,47112,,38.237854850000005,-86.14756256239666
159,1980 E Woodsmall Dr,Roopam Harshawat,Terre Haute,Hospital,Harsha Behavioral Center Inc,(812)298-8888,IN,47802,,39.40014,-87.3959506
160,1051 Southfield Drive,Ryan Gallagher,Plainfield,Hospital,Hendricks Behavioral Hospital,(844)991-9900,IN,46168,,39.6944795,-86.38799049186912
161,1000 E Main St,D. Michelle Fenoughty,Danville,Hospital,Hendricks Regional Health,(317)745-4451,IN,46122,,39.7626756,-86.50266751478205
162,1000 N 16Th St,Brian Ring,New Castle,Hospital,Henry County Memorial Hospital,(765)521-0890,IN,47362,,39.9434594,-85.362811310432
163,2102 S Meridian Street,,Indianapolis,Hospital,Hickory Treatment Center At Meridian,(314)258-1037,IN,46225,,39.7389054,-86.1595127725306
164,285 Bielby Rd,Greg Duncan,Lawrenceburg,Hospital,Incompass Healthcare,(812)537-1302,IN,47025,,39.1116132,-84.8821125
165,215 W 4Th Street,,Mishawaka,Hospital,Indiana Center For Recovery South Bend,(574)325-5961,IN,46544,,41.658650800000004,-86.18210117554833
166,13219 N Meridian Street,Hardeep Sikand,Carmel,Hospital,"Indiana Spine Hospital, Llc",(317)795-2000,IN,46032,,39.83,-86.1569444
167,1701 N Senate Blvd,Dennis Murphy,Indianapolis,Hospital,Indiana University Health,(317)962-2000,IN,46202,,39.791240450000004,-86.16317582423771
168,5165 Mccarty Ln,Arthur Vasquez,Lafayette,Hospital,Indiana University Health Arnett Hospital,(765)448-8000,IN,47905,,40.40068445,-86.80629351441166
169,2401 University Ave,Jeffrey Bird,Muncie,Hospital,Indiana University Health Ball Memorial Hospital,(765)747-3111,IN,47303,,40.19639895,-85.41534412177131
170,2900 W 16Th St,Larry Bailey,Bedford,Hospital,Indiana University Health Bedford Hospital,(812)275-1200,IN,47421,,38.858581650000005,-86.51291626785004
171,1300 S Jackson St,Kristin Post,Frankfort,Hospital,Indiana University Health Frankfort Inc,(765)656-3000,IN,46041,,40.2699007,-86.51154389846977
172,11700 N Meridian St,Doug Puckett,Carmel,Hospital,Indiana University Health North Hospital,(317)688-2000,IN,46032,,39.95903765,-86.16027634858844
173,642 W Hospital Rd,Michele Ridge,Paoli,Hospital,Indiana University Health Paoli Hospital,(812)723-2811,IN,47454,,38.56820835,-86.47501795758988
174,1000 S Main St,Liesel Delemater,Tipton,Hospital,Indiana University Health Tipton Hospital Inc,(765)675-8500,IN,46072,,40.2720046,-86.04231346128687
175,1701 North Senate Blvd,,Indianapolis,Hospital,Indiana University Health Transplant,(317)962-8677,IN,46206,,39.791240450000004,-86.16317582423771
176,720 South Sixth St,Kristin Post,Monticello,Hospital,Indiana University Health White Memorial Hospital,(574)583-7111,IN,47960,,40.73458895,-86.77775296716351
177,1260 City Center Drive,Logan Savage,Carmel,Hospital,"Indianapolis Rehabilitation Hospital, Llc",(463)333-9110,IN,46032,,39.9667371,-86.1513391
178,2651 East Discovery Parkway,Denzil Ross,Bloomington,Hospital,Iu Health Bloomington Hospital,(812)353-5252,IN,47408,,39.17734385,-86.50352701223837
179,500 W Votaw St,Christina Schemenaur,Portland,Hospital,Iu Health Jay,(260)726-7131,IN,47371,,40.4407165,-84.9845068510765
180,1111 N Ronald Reagan Pkwy,Doug Puckett,Avon,Hospital,Iu Health West Hospital,(317)217-3000,IN,46123,,39.78062935,-86.33994590400093
181,1125 W Jefferson St,David Dunkle,Franklin,Hospital,Johnson Memorial Hospital,(317)736-3300,IN,46131,,39.4795986,-86.07711235759359
182,1700 W 10Th St,Brad Klawitter,Indianapolis,Hospital,Kindred Hospital Indianapolis,(317)636-4400,IN,46222,,39.781468849999996,-86.19158440105898
183,8060 Knue Road,Judy Weaver,Indianapolis,Hospital,Kindred Hospital Indianapolis North,(317)813-8900,IN,46250,,39.9021178,-86.0604935
184,950 Park East Blvd,Dan Kidwell,Lafayette,Hospital,Lafayette Regional Rehabilitation Hospital,(765)447-4040,IN,47905,,40.4045411,-86.8294507
185,702 Van Buren Street,Perry Gay,Fort Wayne,Hospital,Lutheran Downtown Hospital,(260)425-3000,IN,46802,,41.0651334,-85.147407
186,7950 W Jefferson Blvd,Lorie Ailor,Fort Wayne,Hospital,Lutheran Hospital Of Indiana,(260)435-7001,IN,46804,,41.0389971,-85.2497135
187,2101 E Dubois Dr,Chad Towner,Warsaw,Hospital,Lutheran Kosciusko Hospital,(574)267-3200,IN,46580,,41.24814255,-85.82889547684118
188,711 Green Rd,Peggy Stephens,Madison,Hospital,Madison State Hospital,(812)265-2611,IN,47250,,38.7457725,-85.40184497034983
189,2451 Intelliplex Dr,John Horner,Shelbyville,Hospital,Major Hospital,(317)392-3211,IN,46176,,39.56038565,-85.78590578003448
190,3955 West Washington Center Road,Jennifer Snyder,Fort Wayne,Hospital,Maple Heights Behavioral Health,(417)392-7307,IN,46818,,41.13218829866609,-85.21470086767816
191,321 Mitchell Ave,Liz Leising,Batesville,Hospital,Margaret Mary Health,(812)934-6624,IN,47006,,39.3052395,-85.22310787663487
192,441 N Wabash Ave,Stephanie Hilton-Siebert,Marion,Hospital,Marion General Hospital,(765)660-6000,IN,46952,,40.5648777,-85.66550511225951
193,1625 East Jefferson Blvd,Jessica Simpkins,Mishawaka,Hospital,Medical Behavioral Hospital - Mishawaka,(574)485-1703,IN,46545,,41.6712484,-86.1588728
194,1167 Wilson Dr,Greg Justice,Greenwood,Hospital,Medical Behavioral Hospital Of Indianapolis,(844)457-5300,IN,46143,,39.71897453487411,-85.88450532508466
195,1101 Michigan Ave,Tara Mcvay,Logansport,Hospital,Memorial Hospital,(574)753-7541,IN,46947,,40.763374150000004,-86.36221114799218
196,800 W 9Th St,Keith Miller,Jasper,Hospital,Memorial Hospital And Health Care Center,(812)996-2345,IN,47546,,38.39512575,-86.94077400436541
197,615 N Michigan St,Larry Tracy,South Bend,Hospital,Memorial Hospital Of South Bend,(574)647-1000,IN,46601,,41.684075750000005,-86.25214474079038
198,600 Grant St,Matthew Doyle,Gary,Hospital,Methodist Hospitals Inc,(219)886-4000,IN,46402,,41.5999051,-87.35817355190116
199,1800 N Oak Rd,Zach Glassburn,Plymouth,Hospital,Michiana Behavioral Health Center,(574)936-3784,IN,46563,,40.06504965,-75.14572248956381
200,4011 S Monroe Medical Park Blvd,Luis Leon,Bloomington,Hospital,Monroe Hospital,(812)825-1111,IN,47403,,39.1203582,-86.57181037497892
201,9330 Broadway,James Duff,Crown Point,Hospital,Neuro Behavioral Hospital,(574)277-2630,IN,46307,,29.5568235,-95.365024
202,5435 E 16Th St,Eric Heeter,Indianapolis,Hospital,Neurodiagnostic Institute,(317)941-4000,IN,46218,,39.817576149999994,-86.07619000853448
203,"6720 Parkdale Place, Suite 100",Alaura Doskocil,Indianapolis,Hospital,"Neuropsychiatric Hospital Of Indianapolis, Llc",(317)744-9200,IN,46254,,39.8262562,-86.27894990000001
204,1850 Wesley Rd,Kimberly Sower-Onion,Auburn,Hospital,Northeastern Center,(260)927-0726,IN,46706,,41.3716969,-85.0303828
205,85 East Us Hwy 6,James Leonard,Valparaiso,Hospital,Northwest Health- Porter,(219)983-8300,IN,46383,,41.548821000000004,-87.04913196015909
206,102 E Culver Rd,Mark Casanova,Knox,Hospital,Northwest Health- Starke,(574)772-1102,IN,46534,,41.28694135,-86.62197963902884
207,1331 State Street,Mark Casanova,La Porte,Hospital,Northwest Health-La Porte,(219)326-1234,IN,46350,,41.6095592,-86.72822075698427
208,1220 Missouri Ave,Kathleen Exline,Jeffersonville,Hospital,Norton Clark Hospital,(812)283-2147,IN,47130,,38.281978,-85.74935233823837
209,1451 N Gardner St,Kathleen Exline,Scottsburg,Hospital,Norton Scott Hospital,(812)752-3456,IN,47170,,38.70528095,-85.78644730794068
210,1373 East Sr 62,Carol Dozier,Madison,Hospital,Norton-King's Daughters' Health,(812)801-0105,IN,47250,,38.79112635,-85.36445907575859
211,7904 Cabela Drive,Scott Samlan,Hammond,Hospital,Nw Indiana Er & Hospital,(219)554-9911,IN,46324,,41.56877255,-87.48020314402449
212,9509 Georgia Street,Keshia Clark,Crown Point,Hospital,Nw Indiana-Amg Specialty Hospital,(219)472-2200,IN,46307,,41.4443906,-87.3252867
213,330 Lakeview Dr,Laurie Nafziger,Goshen,Hospital,Oaklawn Psychiatric Center Inc,(574)533-1234,IN,46527,,41.6033878,-85.8353531
214,5602 Caito Drive,Amanda Wilson,Indianapolis,Hospital,Options Behavioral Health System,(317)544-4340,IN,46226,,39.8557616,-86.0437386
215,8400 Northwest Blvd,John Ryan,Indianapolis,Hospital,Orthoindy Hospital,(317)956-1000,IN,46278,,39.9080708,-86.2674618
216,11130 Parkview Circle Dr,Marceline Rogers,Fort Wayne,Hospital,Orthopaedic Hospital At Parkview North Llc,(260)672-4050,IN,46845,,41.18899395,-85.10227284423925
217,9 Pequignot Dr,Rob Ryan,Pierceton,Hospital,Otis R Bowen Center For Human Services Inc,(574)267-7169,IN,46562,,41.2060192,-85.7006035
218,2101 Broadway Street,Waylon Maynard,Clarksville,Hospital,Pam Health Rehabilitation Hospital Of Greater Indi,(812)913-6880,IN,47129,,38.3294451,-85.7657752
219,1909 Carew Street,Paul Wilson,Fort Wayne,Hospital,"Park Center, Inc",(260)481-2700,IN,46805,,41.0937671,-85.1081562
220,1316 E Seventh St,Natasha Eicher,Auburn,Hospital,Parkview Dekalb Hospital,(260)925-4600,IN,46706,,41.3687136,-85.03445
221,2001 Stults Rd,Debra Potempa,Huntington,Hospital,Parkview Huntington Hospital,(260)355-3000,IN,46750,,40.9053872,-85.4889498
222,207 N Townline Rd,Jordie Disler,Lagrange,Hospital,Parkview Lagrange Hospital,(260)463-9000,IN,46761,,41.645226949999994,-85.425892725
223,401 Sawyer Rd,Jordie Disler,Kendallville,Hospital,Parkview Noble Hospital,(260)347-8700,IN,46755,,41.44841055,-85.29622746902174
224,11109 Parkview Plaza Drive,Gerald Grannan,Fort Wayne,Hospital,Parkview Regional Medical Center,(260)266-1000,IN,46845,,41.1865271,-85.1012666127903
225,10 John Kissinger Drive,Debra Potempa,Wabash,Hospital,"Parkview Wabash Hospital, Inc",(260)563-3131,IN,46992,,47.6073025,-52.67740536226934
226,1260 E Sr 205,Scott Gabriel,Columbia City,Hospital,Parkview Whitley Hospital,(260)248-9301,IN,46725,,41.15882035,-85.46465045067909
227,8885 Sr 237,Jared Stimpson,Tell City,Hospital,Perry County Memorial Hospital,(812)547-7011,IN,47586,,37.9674866,-86.73178189138744
228,4023 Reas Ln,Dennis Medley,New Albany,Hospital,Physicians' Medical Center Llc,(812)206-7660,IN,47150,,38.34001765,-85.82798862134712
229,9301 Connecticut Dr,Haroon Naz,Crown Point,Hospital,Pinnacle Hospital,(219)756-2100,IN,46307,,41.44814965,-87.32831437610585
230,701 Wall St,Matthew Burden,Valparaiso,Hospital,Porter-Starke Services Inc,(219)531-3500,IN,46383,,41.4896904,-87.0520331
231,10215 Broadway Avenue,Craig Bolda,Crown Point,Hospital,Powers Health Rehabilitation Center,(219)661-6055,IN,46307,,41.43038145,-87.33400630105655
232,616 E 13Th St,Steve Jarosinski,Winamac,Hospital,Pulaski Memorial Hospital,(574)946-2100,IN,46996,,41.055999549999996,-86.59626903424284
233,1542 S Bloomington St,Dennis Weatherford,Greencastle,Hospital,Putnam County Hospital,(765)301-7300,IN,46135,,39.620458,-86.8478492
234,4321 Fir St 4Th Fl,Jessica Wilson,East Chicago,Hospital,Regency Hospital Of Northwest Indiana,(219)392-7799,IN,46312,,41.6336244,-87.4483345
235,8555 Taft St,William Trowbridge,Merrillville,Hospital,Regional Mental Health Center,(219)769-4005,IN,46410,,41.463382,-87.3635635
236,4141 Shore Dr,Monte Spence,Indianapolis,Hospital,Rehabilitation Hospital Of Indiana Inc,(317)329-2000,IN,46254,,39.8299753,-86.2773855
237,4807 Edison Lakes Parkway,Kara Simpson,Mishawaka,Hospital,"Rehabilitation Hospital Of Northern Indiana, Llc",(574)243-7727,IN,46545,,41.70407955524536,-86.18079782319288
238,1100 Reid Pkwy,Craig Kinyon,Richmond,Hospital,Reid Health,(765)983-3000,IN,47374,,39.8644246,-84.88474559652563
239,498 Nw 18Th St,Paul Stanley,Richmond,Hospital,Richmond State Hospital,(765)966-0511,IN,47374,,39.81980969003187,-84.92701469056409
240,2900 N River Rd,Brian Donley,West Lafayette,Hospital,River Bend Hospital,(765)464-0400,IN,47906,,40.459811,-86.8939486
241,395 Westfield Rd,Dave Hyatt,Noblesville,Hospital,Riverview Health,(317)773-0760,IN,46060,,40.045514049999994,-86.0230469265588
242,1300 N Main St,Bradley Smith,Rushville,Hospital,Rush Memorial Hospital,(765)932-7513,IN,46173,,39.621737100000004,-85.44384897780687
243,5215 Holy Cross Pkwy,Chris Karam,Mishawaka,Hospital,Saint Joseph Regional Medical Center,(574)335-5000,IN,46545,,41.70669515,-86.17444931963502
244,1915 Lake Ave,Loretta Schmidt,Plymouth,Hospital,Saint Joseph Regional Medical Center - Plymouth,(574)948-4000,IN,46563,,41.33367275,-86.33130744171726
245,411 W Tipton St,Eric Fish,Seymour,Hospital,Schneck Medical Center,(812)522-2349,IN,47274,,38.9551568,-85.89181350961489
246,7970 W Jefferson Blvd,Greg Parrett,Fort Wayne,Hospital,Select Medical Rehabilitation Hospital At Lutheran,(260)435-6100,IN,46804,,41.0425457,-85.2476132
247,400  Se 4Th St,Robyn Baehl,Evansville,Hospital,Select Specialty Hospital-Evansville,(812)421-2330,IN,47713,,37.9682129,-87.567267
248,4321 Fir Street,Leo Correa,East Chicago,Hospital,St Catherine Hospital Inc,(219)392-7004,IN,46312,,41.63621225,-87.44908425995257
249,600 Wilson Creek Rd,Chris Carle,Lawrenceburg,Hospital,St Elizabeth Dearborn Hospital,(812)497-7665,IN,47025,,39.11104025,-84.88327854625064
250,1500 S Lake Park Ave,Janice Ryba,Hobart,Hospital,St Mary Medical Center Inc,(219)942-0551,IN,46342,,41.51249095,-87.26361688646196
251,2001 W 86Th St,Dan Parod,Indianapolis,Hospital,St Vincent Hospital,(317)280-9566,IN,46260,,39.91184955,-86.1984564
252,2200 N Section St,Michelle Franklin,Sullivan,Hospital,Sullivan County Community Hospital,(812)268-4311,IN,47882,,39.125571949999994,-87.41253977993108
253,833 Park East Blvd,Steve Cavender,Lafayette,Hospital,Sycamore Springs Hospital Llc,(765)743-4400,IN,47905,,40.4066718,-86.8274465
254,3901 S Seventh St,Mark Casanova,Terre Haute,Hospital,Terre Haute Regional Hospital,(812)232-0021,IN,47802,,41.070429649999994,-85.19104294440923
255,7952 W Jefferson Blvd,Lorie Ailor,Fort Wayne,Hospital,The Orthopaedic Hospital Of Lutheran Health Networ,(260)435-2999,IN,46804,,41.0398018,-85.2494875
256,4199 Gateway Blvd,Christina Ryan,Newburgh,Hospital,The Women's Hospital,(812)842-4200,IN,47630,,37.9745541,-87.44769918161033
257,10855 Virginia Street,Lauren Hall,Crown Point,Hospital,Uchicago Medicine Northwest Indiana,(312)755-4706,IN,46307,,37.6459179,-77.5827536
258,801 S Main St,Steve Holman,Clinton,Hospital,Union Hospital Clinton,(765)832-1234,IN,47842,,39.653365449999995,-87.39892294309536
259,1606 N Seventh St,Steve Holman,Terre Haute,Hospital,Union Hospital Inc,(812)238-7606,IN,47804,,39.4852998,-87.40786663515323
260,4455 Edison Lakes Pkwy,John Day,Mishawaka,Hospital,Unity Physicians Hospital,(574)231-6800,IN,46545,,41.70158735,-86.17801492084692
261,898 E Main St,Kristen Primeau,Greenwood,Hospital,Valle Vista Health System,(317)883-5300,IN,46143,,39.585888350000005,-86.08374180520983
262,2700 Vissing Park Rd,Gregory Stewart,Jeffersonville,Hospital,Wellstone Regional Hospital,(812)284-8000,IN,47130,,38.32690075,-85.7094495407332
263,2605 N Lebanon St,Kelley Braverman,Lebanon,Hospital,Witham Health Services,(765)485-8000,IN,46052,,40.07743475,-86.47350676443378
264,1400 E 9Th St,Alan Fisher,Rochester,Hospital,Woodlawn Hospital,(574)223-3141,IN,46975,,41.063848699999994,-86.1957765654454
265,2 Freeman Dr,Michelle Smith,Rossville,Interim Care,Abilities Services Inc,(765)379-3818,IN,46065,,40.4217509392233,-86.60218688768776
266,2200 S Earl Ave,Michelle Smith,Lafayette,Interim Care,Abilities Services Inc,(765)362-4020,IN,47905,,36.8946697,-76.20229629965002
267,850 Mapleleaf Dr,Michelle Smith,Frankfort,Interim Care,Abilities Services Inc,(765)659-4631,IN,46041,,40.2879806,-86.48962379999999
268,62836 Planeville Ave,Donna Belusar,Goshen,Interim Care,Adec Inc,(574)848-7453,IN,46526,,41.582625641206064,-85.80075241290807
269,807 Mottville Rd (St Road 15 N),Donna Belusar,Bristol,Interim Care,Adec Inc,(574)848-7451,IN,46507,,-41.3854594,147.1212382
270,603 Highland,Donna Belusar,Middlebury,Interim Care,Adec Inc,(574)848-7451,IN,46540,,41.210078875920075,-85.85987993613207
271,403 Hawthorne Ave,Donna Belusar,Goshen,Interim Care,Adec Inc,(574)848-7451,IN,46526,,41.590683999999996,-85.8740559739874
272,1717 Longwood Ct,Donna Belusar,Goshen,Interim Care,Adec Inc,(574)848-7451,IN,46526,,41.5922703,-85.8603628
273,19816-3 Sr 120,Donna Belusar,Bristol,Interim Care,Adec Inc,(574)848-7453,IN,46507,,39.72426455,-86.08524790688921
274,59796 Park Side,Donna Belusar,Elkhart,Interim Care,Adec Inc,(574)848-7451,IN,46517,,41.5521105521324,-85.80959203605843
275,6803 Lutz Dr,Donna Belusar,South Bend,Interim Care,Adec Inc,(574)848-7457,IN,46614,,41.602883939312115,-86.26459010215518
276,10125 Heather Lakes Dr,Donna Belusar,Osceola,Interim Care,Adec Inc,(574)848-7453,IN,46561,,41.64283417151626,-86.06475158807515
277,52035 Tara Dr,Donna Belusar,South Bend,Interim Care,Adec Inc,(574)848-7453,IN,46628,,41.735830262458606,-86.31573535546357
278,226 Foster Ave,Donna Belusar,Elkhart,Interim Care,Adec Inc,(574)848-7451,IN,46516,,41.6905014,-85.9439255
279,58808 St Marys Ln,Donna Belusar,Goshen,Interim Care,Adec Inc,(574)848-7451,IN,46526,,39.879594499999996,-86.1974895
280,1823 Ashley Ct,Donna Belusar,Goshen,Interim Care,Adec Inc,(574)848-7457,IN,46526,,41.5833862,-85.8615701
281,6712 Mackey Ct,Donna Belusar,South Bend,Interim Care,Adec Inc,(574)848-7451,IN,46614,,41.6035728,-86.2717175
282,0999 N 250 W,Debra Seman,Lagrange,Interim Care,"Arc Of Lagrange County, The",(260)463-8282,IN,46761,,41.67846665229106,-85.33268903611942
283,0170 W 300 N,Debra Seman,Howe,Interim Care,Arc Opportunities Inc,(260)463-4816,IN,46746,,41.732577,-85.36838408401997
284,403 S Third St,Stan Keepes,Petersburg,Interim Care,"Arc Southwest Indiana, The",(812)386-6312,IN,47567,,8.5386859,77.0212491
285,1214 Main St,Stan Keepes,Petersburg,Interim Care,"Arc Southwest Indiana, The",(812)386-6312,IN,47567,,41.0787656,-85.1573713
286,400 Mill St,Stan Keepes,Winslow,Interim Care,"Arc Southwest Indiana, The",(812)386-6312,IN,47598,,38.3431073,-87.0538905
287,1512 S Jefferson,Stan Keepes,Princeton,Interim Care,"Arc Southwest Indiana, The",(812)386-6312,IN,47670,,40.292927,-79.9701903
288,1015 S Stout St,Stan Keepes,Princeton,Interim Care,"Arc Southwest Indiana, The",(812)386-1042,IN,47670,,41.1914267,-87.1139155
289,1228 Brandon Way,Anne Titus,Fort Wayne,Interim Care,Benchmark Human Services,(260)744-6145,IN,46809,,41.2029837,-85.1255471
290,568 Hildebrand St,Anne Titus,South Bend,Interim Care,Benchmark Human Services,(574)233-8812,IN,46614,,41.6156218,-86.24533785
291,7004 Holden Dr,Anne Titus,Fort Wayne,Interim Care,Benchmark Human Services,(260)744-6145,IN,46835,,41.145561650000005,-85.0528959158343
292,6904 Dry Creek Ct,Anne Titus,Fort Wayne,Interim Care,Benchmark Human Services,(260)744-6145,IN,46835,,41.1455074,-85.0468246
293,8424 Fantasia Way,Anne Titus,Fort Wayne,Interim Care,Benchmark Human Services,(260)744-6145,IN,46809,,41.1145616,-85.0355971
294,10633 S America Rd,Anne Titus,La Fontaine,Interim Care,Benchmark Human Services,(260)749-6145,IN,46940,,40.6792089,-85.7019246
295,9029 S America Rd,Anne Titus,La Fontaine,Interim Care,Benchmark Human Services,(260)744-6145,IN,46940,,40.6792089,-85.7019246
296,9228 W Cr 950 N,Anne Titus,Elizabethtown,Interim Care,Benchmark Human Services,(260)744-6145,IN,47232,,39.1220777,-85.76663375
297,6856 Wheelock Rd,Anne Titus,Fort Wayne,Interim Care,Benchmark Human Services,(260)744-6145,IN,46835,,41.1454344,-85.0242402
298,9110 N Cr 700 W,Anne Titus,Scipio,Interim Care,Benchmark Human Services,(260)744-6145,IN,47273,,39.92009095,-86.14983880959106
299,9285 W Cr 950 N,Anne Titus,Elizabethtown,Interim Care,Benchmark Human Services,(260)744-6145,IN,47232,,39.1220777,-85.76663375
300,7137 Rose Ann Pkwy,Anne Titus,Fort Wayne,Interim Care,Benchmark Human Services,(260)744-6145,IN,46804,,41.0532934,-85.2354658
301,4225 Old Mill Rd,Anne Titus,Fort Wayne,Interim Care,Benchmark Human Services,(260)744-6145,IN,46807,,41.0457201,-85.1559267
302,4421 Fairweather Drive,Anne Titus,Fort Wayne,Interim Care,Benchmark Human Services,(260)744-6145,IN,46804,,41.1931841,-85.2022509
303,7631 Wheelock Rd,Anne Titus,Fort Wayne,Interim Care,Benchmark Human Services,(260)744-6145,IN,46835,,41.1528997,-85.0249995
304,8532 Fiesta Way,Anne Titus,Fort Wayne,Interim Care,Benchmark Human Services,(260)744-6145,IN,46815,,41.1193811,-85.0303634
305,8810 Aboite Center Rd,Anne Titus,Fort Wayne,Interim Care,Benchmark Human Services,(260)744-6145,IN,46804,,41.0454672,-85.2578523
306,817 Mendleson Dr,Anne Titus,Richmond,Interim Care,Benchmark Human Services,(260)744-6145,IN,47374,,39.85150596626004,-84.91132096966034
307,825 Mendleson Dr,Anne Titus,Richmond,Interim Care,Benchmark Human Services,(260)744-6145,IN,47374,,39.85150596626004,-84.91132096966034
308,59310 Ireland Ridge Ct,Anne Titus,South Bend,Interim Care,Benchmark Human Services,(574)233-8812,IN,46614,,41.62958295,-86.31072825000001
309,1105 N Hill St,Anne Titus,South Bend,Interim Care,Benchmark Human Services,(574)233-8812,IN,46617,,35.898137500000004,-79.06884481986656
310,25565 Fast Fox Tr,Anne Titus,South Bend,Interim Care,Benchmark Human Services,(574)233-8812,IN,46628,,41.7232280284621,-86.3631199387881
311,55021 Birch Rd,Anne Titus,Osceola,Interim Care,Benchmark Human Services,(260)256-0207,IN,46561,,41.69362677972,-86.085762989661
312,55883 Ring Neck Dr,Anne Titus,Osceola,Interim Care,Benchmark Human Services,(574)675-4932,IN,46561,,41.68374068605333,-86.07771655307641
313,100 S Cr 265 W,Anne Titus,North Vernon,Interim Care,Benchmark Human Services,(260)744-6145,IN,47265,,42.69507175,-123.3962053276093
314,2405 W County Road 200 North,Anne Titus,North Vernon,Interim Care,Benchmark Human Services,(260)744-6145,IN,47265,,39.005881,-85.62416910535714
315,2331 Candlewick Dr,Anne Titus,Fort Wayne,Interim Care,Benchmark Human Services,(260)744-6145,IN,46804,,41.0621342,-85.2665979
316,7614 Lamlie Rd,Anne Titus,Fort Wayne,Interim Care,Benchmark Human Services,(260)744-6145,IN,46818,,41.1493828,-85.2602199
317,9824 Trentman Road,Anne Titus,Fort Wayne,Interim Care,Benchmark Human Services,(260)744-6145,IN,46818,,40.9966926,-85.0786634
318,2325 Perry Tr,Anne Titus,Fort Wayne,Interim Care,Benchmark Human Services,(260)744-6145,IN,46825,,41.1897937,-85.1749807
319,4331 Melbourne Rd,Anne Titus,Indianapolis,Interim Care,Benchmark Human Services,(317)972-1206,IN,46228,,39.83450565,-86.22020364948652
320,9726 Cinnabar Pl,Anne Titus,Fort Wayne,Interim Care,Benchmark Human Services,(260)744-6145,IN,46804,,41.0666082,-85.2696685
321,3224 W 1100 N,Anne Titus,Markle,Interim Care,Benchmark Human Services,(260)744-6145,IN,46770,,40.9021735,-85.2847901
322,16315 Feighner Rd,Anne Titus,Roanoke,Interim Care,Benchmark Human Services,(260)744-6145,IN,46783,,40.9320716,-85.2808073
323,6566 E 1200 N,Anne Titus,Ossian,Interim Care,Benchmark Human Services,(260)744-6145,IN,46777,,39.7847658,-86.2905466
324,10526 Morning Mist Tr,Anne Titus,Fort Wayne,Interim Care,Benchmark Human Services,(260)744-6145,IN,46804,,41.0228016,-85.2805215
325,1726 Old Lantern Tr,Anne Titus,Fort Wayne,Interim Care,Benchmark Human Services,(260)744-6145,IN,46845,,41.1857043,-85.1186456
326,10036 Crown Point,Anne Titus,Fort Wayne,Interim Care,Benchmark Human Services,(260)744-6145,IN,46804,,41.0338486,-85.273273
327,5515 Tomahawk Tr,Anne Titus,Fort Wayne,Interim Care,Benchmark Human Services,(260)744-6145,IN,46804,,41.0331194,-85.2787785
328,3512 Rosewood Dr,Anne Titus,Fort Wayne,Interim Care,Benchmark Human Services,(260)744-6145,IN,46804,,41.0517971,-85.2403623
329,423 E Silver Street,Timothy Ramsey,Bluffton,Interim Care,Bi-County Services Inc,(260)824-1253,IN,46714,,38.6280492,-84.56882663541441
330,423 Wind Ridge Tr,Timothy Ramsey,Berne,Interim Care,Bi-County Services Inc,(260)589-8634,IN,46711,,40.645953193537615,-84.95293061141678
331,1139 Bollman,Timothy Ramsey,Decatur,Interim Care,Bi-County Services Inc,(260)824-1253,IN,46733,,40.817605611369885,-84.93650175010195
332,503 N Third St,Timothy Ramsey,Decatur,Interim Care,Bi-County Services Inc,(260)824-1253,IN,46733,,40.835002267394,-84.926707433114
333,1111 S Oak St,Timothy Ramsey,Bluffton,Interim Care,Bi-County Services Inc,(260)824-1253,IN,46714,,37.77273555,-122.43808486070586
334,118 N Nichols Ave,Daniel Lowe,Salem,Interim Care,Blue River Services Inc,(812)883-1528,IN,47167,,40.7187319,-73.96423747138644
335,293 Summit View Drive,Daniel Lowe,Corydon,Interim Care,Blue River Services Inc,(812)738-4557,IN,47112,,39.617183999999995,-86.18108236167949
336,281 Mcgrain St,Daniel Lowe,Corydon,Interim Care,Blue River Services Inc,(812)738-7904,IN,47112,,38.2219637,-86.1325561
337,3607 Klerner Ln,Daniel Lowe,New Albany,Interim Care,Blue River Services Inc,(812)945-6781,IN,47150,,38.3330899,-85.8082709
338,75 East Oak Dr,Daniel Lowe,Salem,Interim Care,Blue River Services Inc,(812)883-4852,IN,47167,,34.10789495,-118.31026242854972
339,7789 Apple Orchard Lane Ne,Daniel Lowe,New Salisbury,Interim Care,Blue River Services Inc,(812)364-4105,IN,47161,,,
340,5771 E Speed Rd,Daniel Lowe,Milltown,Interim Care,Blue River Services Inc,(812)738-7904,IN,47145,,39.8321829,-86.262436
341,1008 Short Drive,Marcie Arndt,Knox,Interim Care,Cardinal Services Inc Of Indiana,(574)267-3823,IN,46534,,41.6261003,-86.1659795
342,1300 Mitchel St,Marcie Arndt,Rochester,Interim Care,Cardinal Services Inc Of Indiana,(574)732-0983,IN,46975,,41.054378683030016,-86.19627848033274
343,511 E South St,Marcie Arndt,Bremen,Interim Care,Cardinal Services Inc Of Indiana,(574)935-4022,IN,46506,,34.154765499999996,-118.32711169984765
344,807 N Jefferson Street,Marcie Arndt,Silver Lake,Interim Care,Cardinal Services Inc Of Indiana,(574)267-3823,IN,46982,,29.99420015,-90.26430439366972
345,211 S Birkey,Marcie Arndt,Bremen,Interim Care,Cardinal Services Inc Of Indiana,(574)935-4022,IN,46506,,41.44571804689304,-86.165626
346,617 Loon Ct,Marcie Arndt,Plymouth,Interim Care,Cardinal Services Inc Of Indiana,(574)935-4022,IN,46563,,41.3288122,-86.2950424
347,628 Ross Ave,Marcie Arndt,Warsaw,Interim Care,Cardinal Services Inc Of Indiana,(574)267-3823,IN,46580,,41.1013199,-85.1511476
348,301 Western,Marcie Arndt,Logansport,Interim Care,Cardinal Services Inc Of Indiana,(574)732-0983,IN,46947,,40.7607113,-86.3173418
349,1207 W Winona Ave,Marcie Arndt,Warsaw,Interim Care,Cardinal Services Inc Of Indiana,(574)267-3823,IN,46580,,41.2272668,-85.8219345
350,330 E Columbia,Marcie Arndt,Logansport,Interim Care,Cardinal Services Inc Of Indiana,(574)732-0983,IN,46947,,34.08354855,-81.15935087555383
351,1109 N Park Ave,Marcie Arndt,Warsaw,Interim Care,Cardinal Services Inc Of Indiana,(574)267-3823,IN,46580,,41.0693643,-85.0142551
352,213 N Parker Street,Marcie Arndt,Warsaw,Interim Care,Cardinal Services Inc Of Indiana,(574)267-3823,IN,46580,,41.26223135,-85.97640884469254
353,308 W Main St,Marcie Arndt,Silver Lake,Interim Care,Cardinal Services Inc Of Indiana,(574)267-3823,IN,46982,,41.07236535,-85.89516727757308
354,615 E North St,Jim Allbaugh,Hartford City,Interim Care,Carey Services Inc,(765)348-4041,IN,47348,,39.9637089,-75.16049076650438
355,369 S Second St,Jim Allbaugh,Upland,Interim Care,Carey Services Inc.,(765)998-6152,IN,46989,,22.331676350000002,114.14953446573651
356,220 S College St,Basil Weinman,Rockville,Interim Care,Child Adult Resource Services Inc,(765)569-2076,IN,47872,,-38.19027265,146.5168113952393
357,8787 N Nelly Ln,Basil Weinman,Brazil,Interim Care,Child Adult Resource Srv Inc,(812)442-5017,IN,47834,,39.51557555086488,-87.112158790155
358,206 W State St,Basil Weinman,Kingman,Interim Care,Child Adult Resource Srv Inc,(765)832-9732,IN,47952,,33.7490553,-84.38817113010235
359,442 Vine St,Basil Weinman,Clinton,Interim Care,Child Adult Resource Srv Inc,(765)832-9732,IN,47842,,28.7479646,77.1649312
360,1010 Kellam Rd,Jeff Rubin,Centerville,Interim Care,Community Alternatives Adept,(317)570-5903,IN,47330,,39.8164606,-84.9770122
361,213 W Water St,Jeff Rubin,Centerville,Interim Care,Community Alternatives Adept,(317)570-5903,IN,47330,,39.8196591,-84.9982812
362,651 South 100 East,Amy Kelley,Washington,Interim Care,Community Alternatives Sw In,(812)352-6220,IN,47501,,38.6570866,-87.17427222523051
363,4555 Elm Dr,Carissa Foster,Newburgh,Interim Care,Community Alternatives Sw In,(812)433-3535,IN,47630,,37.96741549836783,-87.39796408891942
364,240 1St St Ne,Mark Norris,Linton,Interim Care,Community Alternatives Sw In,(812)352-6220,IN,47441,,41.083655949999994,-96.13498672709106
365,8206 Buckridge Tr,Carissa Foster,Evansville,Interim Care,Community Alternatives Sw In,(812)433-3535,IN,47715,,37.989194858555,-87.673406024825
366,10707 Bernadette Dr,Carissa Foster,Evansville,Interim Care,Community Alternatives Sw In,(812)433-3535,IN,47725,,38.07761735176901,-87.54798397934213
367,1480 W 47Th St,Amy Kelley,Jasper,Interim Care,Community Alternatives Sw In,(812)433-3535,IN,47546,,32.71881275,-109.72596042714983
368,2745 Windemere Dr,Carissa Foster,Evansville,Interim Care,Community Alternatives Sw In,(812)433-3535,IN,47725,,38.063817300004985,-87.51584653533061
369,525 S Skyview Dr,Amy Kelley,Jasper,Interim Care,Community Alternatives Sw In,(812)683-3798,IN,47546,,38.379561800000005,-86.97042275
370,6611 Cheshire Dr,Carissa Foster,Newburgh,Interim Care,Community Alternatives Sw In,(812)433-3535,IN,47630,,37.99443986992624,-87.3707809964551
371,6025 Buckskin Ct,Jeff Rubin,Indianapolis,Interim Care,Community Alternatives-Adept,(317)845-9803,IN,46250,,39.89967145,-86.06399067254702
372,7859 Delbrook Dr,Jay Naeem,Indianapolis,Interim Care,Community Alternatives-Adept,(317)570-5903,IN,46260,,39.8971723,-86.1862225
373,8217 Lieber Rd,Jeff Rubin,Indianapolis,Interim Care,Community Alternatives-Adept,(317)750-5903,IN,46260,,39.90532965,-86.18014560390165
374,1330 W Shawnee,Jeff Rubin,Indianapolis,Interim Care,Community Alternatives-Adept,(317)253-4613,IN,46260,,39.881364149999996,-86.1838310429363
375,7919 San Ricardo Court,Jeff Rubin,Indianapolis,Interim Care,Community Alternatives-Adept,(317)849-8285,IN,46256,,39.9092163,-86.02848037744201
376,3202 S Fellows,Don Wierenga,South Bend,Interim Care,Corvilla Inc,(574)289-9779,IN,46614,,41.62273950810081,-86.24651279322626
377,1318 Roelke St,Don Wierenga,South Bend,Interim Care,Corvilla Inc,(574)289-9779,IN,46614,,41.67990165,-86.22932116178133
378,18443 Bulla Rd,Don Wierenga,South Bend,Interim Care,Corvilla Inc,(574)289-9779,IN,46637,,41.6965391,-86.1978808
379,52549 Myrtle St,Don Wierenga,South Bend,Interim Care,Corvilla Inc,(574)289-9779,IN,46637,,41.716560650000005,-86.24789215000001
380,3222 S 125 E,Jeremy Bowser,Shelbyville,Interim Care,Developmental Service Alternatives,(317)398-7722,IN,46176,,39.7639331,-86.15550238929305
381,823 Alhambra,Jeremy Bowser,Anderson,Interim Care,Developmental Service Alternatives,(765)649-3421,IN,46011,,40.258730058628984,-86.50238189046375
382,9520 E Gemini Dr,Jeremy Bowser,Indianapolis,Interim Care,Developmental Service Alternatives,(317)898-1363,IN,46229,,39.805197787849,-85.999912244344
383,227 Gaslite Ln,Jeremy Bowser,Greenfield,Interim Care,Developmental Service Alternatives,(317)462-2327,IN,46140,,39.8024292,-85.7732667
384,7603 E 10Th St,Jeremy Bowser,Indianapolis,Interim Care,Developmental Service Alternatives,(317)536-5309,IN,46219,,39.7814828,-86.03057417107968
385,3708 Luewan Dr,Jeremy Bowser,Indianapolis,Interim Care,Developmental Service Alternatives,(317)899-1226,IN,46229,,39.82462825,-85.9977098349119
386,2228 Van Buskirk Rd,Jeremy Bowser,Anderson,Interim Care,Developmental Service Alternatives,(765)649-3298,IN,46011,,40.11999786699711,-85.7013452737693
387,12110 Beckley Dr,Jeremy Bowser,Cumberland,Interim Care,Developmental Service Alternatives,(317)894-4211,IN,46229,,39.819547772217156,-86.23781319482045
388,314 W 13Th St,Jeremy Bowser,Anderson,Interim Care,Developmental Service Alternatives,(765)649-3198,IN,46016,,38.307544,-86.95596770332321
389,1102 W Mill Street,Jeremy Bowser,Angola,Interim Care,Developmental Service Alternatives,(317)477-0093,IN,46703,,41.6398977,-85.08136908005437
390,1275 Mid Jamestown Rd,Jeremy Bowser,Lebanon,Interim Care,Developmental Service Alternatives,(765)482-6177,IN,46052,,40.020532,-86.4897376
391,1009 W Market St,Jeremy Bowser,Crawfordsville,Interim Care,Developmental Service Alternatives,(765)364-0544,IN,47933,,40.70469942833703,-74.01222671604062
392,714 Penn Dr,Jeremy Bowser,Crawfordsville,Interim Care,Developmental Service Alternatives,(765)364-0500,IN,47933,,40.049043418413575,-86.88597831763416
393,2805 West 50 North,Jeremy Bowser,Lebanon,Interim Care,Developmental Service Alternatives,(765)482-1128,IN,46052,,51.4924922,7.451854850900588
394,1435 W Congress St,Jeremy Bowser,Middletown,Interim Care,Developmental Service Alternatives,(765)354-6128,IN,47356,,52.504186250000004,13.280420411315319
395,2326 Berwick Dr,Jeremy Bowser,Shelbyville,Interim Care,Developmental Service Alternatives,(317)398-0000,IN,46176,,39.50033379686613,-85.798127735803
396,1757 S 600 W,Jeremy Bowser,New Palestine,Interim Care,Developmental Service Alternatives,(317)861-5666,IN,46163,,41.532047399999996,-87.43702383141999
397,740 Oak Blvd,Jeremy Bowser,Greenfield,Interim Care,Developmental Service Alternatives,(317)462-6668,IN,46140,,39.792826,-85.774873
398,912 N Parkway Dr,Jeremy Bowser,Anderson,Interim Care,Developmental Service Alternatives,(765)649-2739,IN,46013,,39.9677558,-86.1088484
399,902  N Muessing Rd,Jeremy Bowser,Indianapolis,Interim Care,Developmental Service Alternatives,(317)894-8243,IN,46229,,39.7816976,-85.95763598967675
400,4918 Michael St,Jeremy Bowser,Anderson,Interim Care,Developmental Service Alternatives,(765)640-8336,IN,46011,,40.15120950314907,-85.68548888261687
401,220 W Main St,Jeremy Bowser,Crawfordsville,Interim Care,Developmental Service Alternatives,(765)361-0551,IN,47933,,40.03679725,-86.90727032638486
402,3100 W Private Rd 385 N,Pamela Pace,North Vernon,Interim Care,Developmental Services Inc,(812)376-9404,IN,47265,,39.0601448,-85.6640607
403,3839 Camelot Ln,Pamela Pace,Columbus,Interim Care,Developmental Services Inc,(812)376-9404,IN,47203,,39.2276929,-85.8770513
404,3261 Almquist Court,Amy Duranto,Kokomo,Interim Care,Developmental Services Inc,(765)864-9925,IN,46902,,40.4524394,-86.13381879574956
405,4251 River Rd,Pamela Pace,Columbus,Interim Care,Developmental Services Inc,(812)376-9404,IN,47203,,39.2452231,-85.9171875
406,1901 W Golden Hills Dr,Amy Duranto,Peru,Interim Care,Developmental Services Inc,(765)472-7826,IN,46970,,40.4772106,-86.1499968
407,2333 Westdale Ct,Amy Duranto,Kokomo,Interim Care,Developmental Services Inc,(765)868-4929,IN,46901,,40.47994295,-86.163465471976
408,901 Joseph St,Pamela Pace,Greensburg,Interim Care,Developmental Services Inc,(812)376-9404,IN,47240,,39.7791259,-86.1556058
409,426 E Montgomery Rd.,Pamela Pace,Greensburg,Interim Care,Developmental Services Inc,(812)376-9404,IN,47240,,39.355623100677775,-85.46778090181455
410,830 Evergreen Drive,Pamela Pace,Seymour,Interim Care,Developmental Services Inc,(812)376-9404,IN,47274,,38.94883023115902,-85.88484196744288
411,631 N Elm St,Pamela Pace,Seymour,Interim Care,Developmental Services Inc,(812)376-9404,IN,47274,,42.76345015,-81.16063039117648
412,113 Jennings St,Pamela Pace,North Vernon,Interim Care,Developmental Services Inc,(812)376-9404,IN,47265,,39.00602395,-85.62617911990681
413,583 Camelot Dr,Pamela Pace,Seymour,Interim Care,Developmental Services Inc,(812)376-9404,IN,47274,,38.9622303,-85.9104137
414,2727 N Dunn Street,Steve Burton,Bloomington,Interim Care,Developmental Services Inc,(812)323-9943,IN,47408,,41.4929889,-87.0708983622624
415,339 W Jefferson St,Steve Burton,Spencer,Interim Care,Developmental Services Inc,(812)829-1833,IN,47460,,39.2840296,-86.7663221
416,1922 Limestone Dr,Steve Burton,Ellettsville,Interim Care,Developmental Services Inc,(812)876-8721,IN,47429,,39.2410991,-86.61262
417,1826 S Covey Lane,Steve Burton,Bloomington,Interim Care,Developmental Services Inc,(812)332-9615,IN,47401,,39.162039500000006,-86.51143318487068
418,2403/2405 Washington St,Mel Fields,New Castle,Interim Care,Developmental Services Inc,(812)254-3207,IN,47362,,46.560508799999994,-120.5076824724883
419,1413 Darby St,Amy Duranto,Kokomo,Interim Care,Developmental Services Inc,(765)452-1140,IN,46902,,40.469842650000004,-86.16425135
420,112 E Westmoreland,Amy Duranto,Kokomo,Interim Care,Developmental Services Inc,(765)450-7667,IN,46901,,40.486197399999995,-86.15099255671332
421,3770 W 80 N,Amy Duranto,Kokomo,Interim Care,Developmental Services Inc,(765)450-7667,IN,46901,,40.4878965,-86.1987524
422,2453 S 100 E,Amy Duranto,Peru,Interim Care,Developmental Services Inc,(765)457-8273,IN,46970,,51.5105048,-0.1206359
423,1730 Osage Dr,Amy Duranto,Kokomo,Interim Care,Developmental Services Inc,(765)865-9040,IN,46902,,40.451443499999996,-86.15516456146409
424,821 Sunset Dr,Brenda Falcone,Flora,Interim Care,Dungarvin Indiana Llc,(800)735-3477,IN,46929,,40.5452925,-86.5110965
425,51778 Trowbridge Ln,Brenda Falcone,South Bend,Interim Care,Dungarvin Indiana Llc,(800)735-3477,IN,46637,,41.740704175705,-86.267294247497
426,2816 York Rd,Brenda Falcone,South Bend,Interim Care,Dungarvin Indiana Llc,(800)735-3477,IN,46614,,41.6464032,-86.2277747
427,304 3Rd St,Brenda Falcone,Flora,Interim Care,Dungarvin Indiana Llc,(800)735-3477,IN,46929,,40.76551685,-87.44564717383015
428,60650 Lilac Rd,Barbara Stanford,South Bend,Interim Care,Dungarvin Indiana Llc,(800)735-3477,IN,46614,,41.7265676,-86.2761778
429,233 W 700 N.,Brenda Falcone,Valparaiso,Interim Care,Dungarvin Indiana Llc,(574)245-5400,IN,46385,,40.1811342,-84.9749049
430,422 Marquette Trail,Brenda Falcone,Michigan City,Interim Care,Dungarvin Indiana Llc,(800)735-3477,IN,46360,,41.75551906022104,-86.83267859463614
431,3521 Oxford,Brenda Falcone,South Bend,Interim Care,Dungarvin Indiana Llc,(800)735-3477,IN,46615,,39.820622,-86.11473528217635
432,50605 Wyandotte,Brenda Falcone,Granger,Interim Care,Dungarvin Indiana Llc,(800)735-3477,IN,46530,,41.7588085,-86.0824524
433,55693 Ash Road,Brenda Falcone,Osceola,Interim Care,Dungarvin Indiana Llc,(800)735-3477,IN,46561,,41.61206303256102,-86.06053074491179
434,336 W 56Th Avenue,Brenda Falcone,Merrillville,Interim Care,Dungarvin Indiana Llc,(800)735-3477,IN,46410,,41.51424606408117,-87.3580576842241
435,113 S 325 E,Brenda Falcone,Valparaiso,Interim Care,Dungarvin Indiana Llc,(800)735-3477,IN,46385,,42.7281648,-84.48576207293556
436,52812 Highland Dr,Brenda Falcone,South Bend,Interim Care,Dungarvin Indiana Llc,(800)735-3477,IN,46635,,41.7270647955166,-86.20310367907678
437,474 Whitewood Dr,Brenda Falcone,Valparaiso,Interim Care,Dungarvin Indiana Llc,(800)735-3477,IN,46385,,41.5162335514739,-87.47406132486798
438,60680 Lilac Rd,Brenda Falcone,South Bend,Interim Care,Dungarvin Indiana Llc,(800)735-3477,IN,46614,,41.7265676,-86.2761778
439,2524 Beechwood Cir,Donna Elbrecht,Fort Wayne,Interim Care,Easter Seals Arc Of Northeast,(260)456-4534,IN,46807,,41.0613517,-85.1466841
440,2827 Tillman Road,Katlyn Ryfe,Fort Wayne,Interim Care,Easter Seals Arc Of Northeast,(260)456-4534,IN,46816,,41.0179082,-85.0998972
441,8626 Standridge Run,Donna Elbrecht,Fort Wayne,Interim Care,Easter Seals Arc Of Northeast,(260)456-4534,IN,46825,,41.1583217,-85.1315686
442,10962 Tonkel Road,Donna Elbrecht,Fort Wayne,Interim Care,Easter Seals Arc Of Northeast,(260)456-4534,IN,46845,,41.1850586,-85.0753741
443,4422 Lake Ave,Donna Elbrecht,Fort Wayne,Interim Care,Easter Seals Arc Of Northeast,(260)456-4534,IN,46815,,41.0904897,-85.0830711
444,4720 Ashland Drive,Donna Elbrecht,Fort Wayne,Interim Care,Easter Seals Arc Of Northeast Indiana,(260)456-4534,IN,46835,,41.1489122,-85.0849155
445,4915 Haffner Dr,Donna Elbrecht,Fort Wayne,Interim Care,Easter Seals Arc Of Northeast Indiana,(260)456-4534,IN,46835,,41.1246522,-85.0788128
446,9104 Strathmore Ln,Donna Elbrecht,Fort Wayne,Interim Care,Easter Seals Arc Of Northeast Indiana,(260)456-4534,IN,46818,,41.0861005,-85.2604475
447,343 Weston Dr,Donna Elbrecht,Columbia City,Interim Care,Easter Seals Arc Of Northeast Indiana,(260)244-7688,IN,46725,,41.148519094024735,-85.49239007441322
448,125 N 200 E,Donna Elbrecht,Columbia City,Interim Care,Easter Seals Arc Of Northeast Indiana,(260)248-2783,IN,46725,,39.470372,-87.4081932159912
449,990 E Hanna St,Donna Elbrecht,Columbia City,Interim Care,Easter Seals Arc Of Northeast Indiana,(260)244-5529,IN,46725,,34.197067849999996,-80.22646830551085
450,2605 Lindberg Road,Connie Kurtz,Anderson,Interim Care,Hopewell Center Inc,(765)642-0201,IN,46015,,40.120452147317,-85.646408661482
451,211 Mill Stream Lane,Connie Kurtz,Anderson,Interim Care,Hopewell Center Inc,(765)642-0201,IN,46011,,40.110802165014576,-85.72215111431221
452,915 Bittersweet Ln,Connie Kurtz,Anderson,Interim Care,Hopewell Center Inc,(765)642-0201,IN,46015,,40.1080478,-85.7177975
453,211 W 76Th Ave,Deanne Holmes,Merrillville,Interim Care,In-Pact Inc,(219)662-1905,IN,46410,,45.4852546,-122.75446287582821
454,5802 Vermont St,Deanne Holmes,Merrillville,Interim Care,In-Pact Inc,(219)980-5703,IN,46410,,41.5127955,-87.325624
455,132 Berens St,Deanne Holmes,Dyer,Interim Care,In-Pact Inc,(219)865-0253,IN,46311,,41.48729085884945,-87.52197113026334
456,1487 W 4Th St,Deanne Holmes,Hobart,Interim Care,In-Pact Inc,(219)662-1905,IN,46342,,41.5137651,-87.1858403
457,6341 Forest Ave,Deanne Holmes,Hammond,Interim Care,In-Pact Inc,(219)931-1533,IN,46324,,41.5929724,-87.5238888
458,605 Sherwood Drive,Deanne Holmes,Crown Point,Interim Care,In-Pact Inc,(219)662-1905,IN,46307,,39.712888500000005,-86.09073393031863
459,9321 Sullivan Ln,Deanne Holmes,Crown Point,Interim Care,In-Pact Inc,(219)662-1905,IN,46307,,41.448780100549,-87.231162054333
460,723 N 200 E,Deanne Holmes,Valparaiso,Interim Care,In-Pact Inc,(219)662-1905,IN,46383,,39.470372,-87.4081932159912
461,522 E North St,James Sinclair,Portland,Interim Care,Jay-Randolph Developmental Services,(260)726-2800,IN,47371,,35.21305005,-81.30411934638067
462,840 Pineview Ln,James Sinclair,Winchester,Interim Care,Jay-Randolph Developmental Services,(765)584-1924,IN,47394,,40.1623974,-84.9626977
463,644 E North Street,James Sinclair,Portland,Interim Care,Jay-Randolph Developmental Services,(260)726-6200,IN,47371,,39.8093632,-86.1719104
464,227 E Union St,James Sinclair,Portland,Interim Care,Jay-Randolph Developmental Services,(260)726-4499,IN,47371,,41.663422749999995,-91.53201384656737
465,2918 E Arc Ave Bldg 101,Nash Dunn,Vincennes,Interim Care,Knox County Association For Remarkable Citizens,(812)895-0059,IN,47591,,-23.57840872883962,-46.50318033902797
466,410 Liberty Street,Nash Dunn,Bicknell,Interim Care,Knox County Association For Remarkable Citizens,(812)895-0059,IN,47512,,38.2998148,-86.9544987
467,1602 Orkney Drive,Matt Harrington,South Bend,Interim Care,Logan Community Resources Inc,(574)289-0385,IN,46614,,41.62897210423646,-86.22345146439939
468,2105 Wabash Street,Matt Harrington,South Bend,Interim Care,Logan Community Resources Inc,(574)289-0385,IN,46613,,41.65207162858682,-86.284208795667
469,3031 Bentley Ln,Matt Harrington,South Bend,Interim Care,Logan Community Resources Inc,(574)289-4831,IN,46616,,41.690566,-86.2047924
470,1917 Walnut St,Matt Harrington,South Bend,Interim Care,Logan Community Resources Inc,(574)289-4831,IN,46616,,41.653741,-86.2709104
471,907 Cottage Grove Avenue,Matt Harrington,South Bend,Interim Care,Logan Community Resources Inc,(574)289-0385,IN,46616,,35.7311185,-79.4677412
472,20089 Lark Dr,Matt Harrington,South Bend,Interim Care,Logan Community Resources Inc,(574)289-0385,IN,46637,,41.72865875841681,-86.2572701829775
473,119 Spruce St,Matt Harrington,South Bend,Interim Care,Logan Community Resources Inc,(574)289-0385,IN,46601,,41.6770594,-86.25801459209299
474,4412 S B St,Jennifer Krodel,Richmond,Interim Care,Mcsherr Inc - B St,(765)962-6370,IN,47374,,41.12544285,-84.85149459715451
475,3101 Backmeyer Rd,Jennifer Krodel,Richmond,Interim Care,Mcsherr Inc - Backmeyer,(765)962-6370,IN,47374,,39.8226017,-84.8599318
476,496 Denny Dr,Jennifer Krodel,New Castle,Interim Care,Mcsherr Inc - New Castle,(765)962-6370,IN,47362,,39.924393610226,-85.406753228035
477,200 Division Street,Jen Zajicek,Elkhart,Interim Care,Mosaic,(574)675-0726,IN,46516,,41.6862538,-85.9728053
478,8205 & 8235 East Old Maple Ave,Lori Bryant,Terre Haute,Interim Care,Mosaic,(812)235-3399,IN,47803,,39.49164826111096,-87.31225024207284
479,8556 S Us Hwy 41,Lori Bryant,Terre Haute,Interim Care,Mosaic,(812)235-3399,IN,47802,,40.92588519246945,-87.45009927978825
480,723 Cherry Tree Ln,Jen Zajicek,South Bend,Interim Care,Mosaic,(574)675-0726,IN,46617,,41.685116001306,-86.217730471446
481,475 Woodbine,Lori Bryant,Terre Haute,Interim Care,Mosaic,(812)235-3399,IN,47803,,39.481287,-87.3584869
482,7933 E Chandler Ave,Lori Bryant,Terre Haute,Interim Care,Mosaic,(812)235-3399,IN,47803,,39.482920050000004,-87.32415823743071
483,1703 Woodmont Dr,Jen Zajicek,South Bend,Interim Care,Mosaic,(574)675-0726,IN,46614,,41.6379177894283,-86.22154991468977
484,1310 Croydon Ct,Jen Zajicek,South Bend,Interim Care,Mosaic,(574)675-0726,IN,46614,,41.6100353,-86.2298707
485,2820 Benham Ave,Jen Zajicek,Elkhart,Interim Care,Mosaic,(574)675-0726,IN,46517,,41.650014802266824,-85.96985598972019
486,2999 Westlane Rd,Allison Wharry,Indianapolis,Interim Care,"New Hope Of Indiana, Inc",(317)338-9600,IN,46268,,39.8839236,-86.21199544686738
487,8727 Kensington Drive,Allison Wharry,Noblesville,Interim Care,"New Hope Of Indiana, Inc",(317)338-9600,IN,46060,,40.003181065617085,-86.01592988426091
488,721 W 73Rd,Allison Wharry,Indianapolis,Interim Care,"New Hope Of Indiana, Inc",(317)338-9600,IN,46260,,39.8862193,-86.1719598
489,10264 N College,Allison Wharry,Indianapolis,Interim Care,"New Hope Of Indiana, Inc",(317)338-9600,IN,46280,,39.9232572,-86.1458628
490,8521 Crown Point Rd,Allison Wharry,Indianapolis,Interim Care,"New Hope Of Indiana, Inc",(317)338-9600,IN,46278,,39.8913426,-86.3131746447435
491,12342 Lantern Rd,Allison Wharry,Fishers,Interim Care,"New Hope Of Indiana, Inc",(317)222-3220,IN,46038,,39.9684676,-86.0138026
492,6068 Munsee Ln,Allison Wharry,Indianapolis,Interim Care,"New Hope Of Indiana, Inc",(317)338-9600,IN,46208,,39.86568685,-86.18121505345431
493,5701 Daphne Drive,Allison Wharry,Indianapolis,Interim Care,"New Hope Of Indiana, Inc",(317)222-3220,IN,46268,,39.878307649999996,-86.26138394647757
494,9001 N Holliday Dr,Allison Wharry,Indianapolis,Interim Care,"New Hope Of Indiana, Inc",(317)338-9600,IN,46260,,39.9182367,-86.16297930048718
495,3538 Julie Ln,Allison Wharry,Indianapolis,Interim Care,"New Hope Of Indiana, Inc",(317)338-9600,IN,46208,,39.8527548,-86.22102723349231
496,4822 Alameda Rd,Allison Wharry,Indianapolis,Interim Care,"New Hope Of Indiana, Inc",(317)338-9600,IN,46208,,39.84242385,-86.21814505737832
497,600 Pfeiffer Rd,Carissa Foster,Evansville,Interim Care,Normal Life Of Indiana,(812)433-7146,IN,47711,,38.011221,-87.553628
498,2304 Cruft St,Michael Shepherd,Terre Haute,Interim Care,Normal Life Of Indiana,(812)234-3454,IN,47803,,39.454761912248145,-87.37534013343667
499,935 E Olmstead Ave,Carissa Foster,Evansville,Interim Care,Normal Life Of Indiana,(812)433-3535,IN,47711,,38.895139,-77.0249799059381
500,1144 Sheffield Dr,Carissa Foster,Evansville,Interim Care,Normal Life Of Indiana,(812)433-3535,IN,47710,,38.0236886,-87.5787729
501,428 Sterchi Dr,Carissa Foster,Evansville,Interim Care,Normal Life Of Indiana,(812)433-3535,IN,47712,,38.061016147096,-87.557568154413
502,8616 Northfield Dr,Carissa Foster,Evansville,Interim Care,Normal Life Of Indiana,(812)426-1512,IN,47713,,38.057092367287,-87.552684268841
503,3000 Bailey Ln,Carissa Foster,Evansville,Interim Care,Normal Life Of Indiana,(812)433-3535,IN,47710,,38.095514496495,-87.510749311406
504,411 N Pine,Michael Shepherd,Brazil,Interim Care,Normal Life Of Indiana,(812)234-3454,IN,47834,,32.9199923,-111.2580338
505,4217 N 13 1/2 St,Michael Shepherd,Terre Haute,Interim Care,Normal Life Of Indiana,(812)234-3454,IN,47805,,52.3940737,13.0525855
506,887 Bunkerhill Dr,Michael Shepherd,Terre Haute,Interim Care,Normal Life Of Indiana,(812)234-3454,IN,47802,,39.37119313290977,-87.40473244360521
507,7469 Kingswood St,Michael Shepherd,Terre Haute,Interim Care,Normal Life Of Indiana,(812)234-3454,IN,47802,,39.376386202027,-87.402676741013
508,29 East Longridge Road,Michael Shepherd,Terre Haute,Interim Care,Normal Life Of Indiana,(812)234-3454,IN,47802,,39.38502669488362,-87.38483593035681
509,4475 N 17Th St,Michael Shepherd,Terre Haute,Interim Care,Normal Life Of Indiana,(812)234-3454,IN,47805,,26.18140335,-80.16588678883437
510,333 Treeline Dr,Michael Shepherd,Terre Haute,Interim Care,Normal Life Of Indiana,(812)299-5751,IN,47802,,39.379051480736,-87.379568140029
511,501 Albert St,Valerie Thill,Valparaiso,Interim Care,Opportunity Enterprises,(219)464-9621,IN,46383,,53.5265152,-113.2965367
512,3102 Airport Rd,Valerie Thill,Portage,Interim Care,Opportunity Enterprises Inc,(219)464-9621,IN,46368,,24.9209101,91.8685605579042
513,355 Sheffield,Valerie Thill,Valparaiso,Interim Care,Opportunity Enterprises Inc,(219)464-9621,IN,46383,,34.7698834,-87.70659691558635
514,203 Appletree,Valerie Thill,Valparaiso,Interim Care,Opportunity Enterprises Inc,(219)464-9621,IN,46383,,41.49087737863155,-87.06028716958845
515,6381 Lute Rd,Valerie Thill,Portage,Interim Care,Opportunity Enterprises Inc,(219)464-9621,IN,46368,,41.5577352,-87.167924
516,5949 Fiesta Ave,Valerie Thill,Portage,Interim Care,Opportunity Enterprises Inc,(219)464-9621,IN,46368,,41.551888301706214,-87.18574485011084
517,1667 Pike St,Chris Kauffman,Wabash,Interim Care,Pathfinder Services Inc,(800)833-1571,IN,46992,,40.759381713133514,-85.8957988077856
518,4438 Haney Court,Chris Kauffman,New Haven,Interim Care,Pathfinder Services Inc,(800)833-1571,IN,46774,,41.046495,-85.0211358
519,260 Half Street,Chris Kauffman,Wabash,Interim Care,Pathfinder Services Inc,(800)833-1571,IN,46992,,40.808710555947236,-85.82467065490015
520,1570 Jessup Street,Chris Kauffman,Huntington,Interim Care,Pathfinder Services Inc,(800)833-1571,IN,46750,,40.86676103407467,-85.50163238776749
521,495 Thomas Rd,Chris Kauffman,Huntington,Interim Care,Pathfinder Services Inc,(800)833-1571,IN,46750,,40.8819999,-85.5144083
522,107 Binkley,Chris Kauffman,Knox,Interim Care,Pathfinder Services Inc,(800)833-1571,IN,46534,,41.2958512,-86.6235986
523,2 Williams Drive,Chris Kauffman,Wabash,Interim Care,Pathfinder Services Inc,(800)833-1571,IN,46992,,40.77614070376626,-85.82338595630527
524,605 Academy Rd,Chris Kauffman,Culver,Interim Care,Pathfinder Services Inc,(800)833-1571,IN,46511,,41.2224854,-86.418864
525,452 Cline Street,Chris Kauffman,Huntington,Interim Care,Pathfinder Services Inc,(800)833-1571,IN,46750,,40.87291436805551,-85.50078309383143
526,1103 Lindley Street,Chris Kauffman,Huntington,Interim Care,Pathfinder Services Inc,(800)833-1571,IN,46750,,40.88860810900832,-85.47360014102748
527,356 E Mound St,Chris Kauffman,Knox,Interim Care,Pathfinder Services Inc,(800)833-1571,IN,46534,,31.4661834,-84.92511214926327
528,1211 Woodlawn Ave,Chris Nabors,Logansport,Interim Care,Peak Community Services Inc,(574)753-4104,IN,46947,,40.748222409829005,-86.3480519581245
529,531 West Washington Street,Chris Nabors,Winamac,Interim Care,Peak Community Services Inc,(574)753-4104,IN,46996,,36.70970765,-81.97528083385174
530,1625 High St,Chris Nabors,Logansport,Interim Care,Peak Community Services Inc,(574)753-4104,IN,46947,,40.75002455,-86.33081025425335
531,1711 Treen St,Chris Nabors,Logansport,Interim Care,Peak Community Services Inc,(574)753-4104,IN,46947,,40.76781711280774,-86.36038117786785
532,231 East Galbreath Drive,Chris Nabors,Winamac,Interim Care,Peak Community Services Inc,(574)753-4104,IN,46996,,41.059606592916666,-86.60047327910472
533,1141 19Th St,Chris Nabors,Logansport,Interim Care,Peak Community Services Inc,(574)753-4104,IN,46947,,40.75031519169781,-86.34278206799699
534,914 Tennessee St,Charles Schroeder,Greencastle,Interim Care,Putnam County Comprehensive Services Inc,(765)653-9763,IN,46135,,39.637191054347504,-86.84378722996323
535,1222 Bloomington,Charles Schroeder,Greencastle,Interim Care,Putnam County Comprehensive Services Inc,(765)653-9763,IN,46135,,39.174396,-86.5491793
536,108 Altra Dr,Judy Brettsschneider,Clarksville,Interim Care,Quality Community Services Inc,(812)285-8710,IN,47129,,38.31679427911493,-85.77054114374434
537,4 Sylvan Ln,Judy Brettsschneider,Jeffersonville,Interim Care,Quality Community Services Inc,(812)282-7148,IN,47130,,38.30413540061812,-85.69261966879145
538,1620 Shelby Pl,Judy Brettsschneider,New Albany,Interim Care,Quality Community Services Inc,(812)948-8183,IN,47150,,38.29631825,-85.81220044265051
539,2107 E Powell  Ave,M Kelley Schneider,Evansville,Interim Care,Rehabilitation Center Developmental Services,(812)476-0243,IN,47714,,38.9113373,-77.04708622246332
540,1999 Bell Road,M Kelley Schneider,Chandler,Interim Care,Rehabilitation Center Developmental Services,(812)838-5827,IN,47610,,39.31509135,-76.5805214304257
541,428 Cypress,M Kelley Schneider,Newburgh,Interim Care,Rehabilitation Center Developmental Services,(812)858-5238,IN,47630,,37.94639605,-87.41184121779557
542,420 Fuquay Rd,M Kelley Schneider,Evansville,Interim Care,Rehabilitation Center Developmental Services,(812)473-1414,IN,47715,,37.9716302,-87.4595196
543,2626 Helmuth Ave,M Kelley Schneider,Evansville,Interim Care,Rehabilitation Center Developmental Services,(812)473-1171,IN,47714,,37.94987338819473,-87.51825375484775
544,1426 S Alvord Ln,M Kelley Schneider,Evansville,Interim Care,Rehabilitation Center Developmental Services,(812)473-1552,IN,47714,,37.961765320494635,-87.52460308806549
545,4217 Oak Hill Rd,M Kelley Schneider,Evansville,Interim Care,Rehabilitation Center Developmental Services,(812)476-3416,IN,47711,,38.00459209744651,-87.51764880046527
546,2606 S Rotherwood,M Kelley Schneider,Evansville,Interim Care,Rehabilitation Center Developmental Services,(812)473-2087,IN,47714,,37.97440956502724,-87.53399024739291
547,1803 Riley Rd,Jacque Pulling,New Castle,Interim Care,Rem Occazio Llc,(765)529-8375,IN,47362,,39.9022612,-85.3612336
548,568 Yorktown Rd,Jacque Pulling,Greenwood,Interim Care,Rem Occazio Llc,(317)887-6574,IN,46142,,39.6082512,-86.1401709
549,511 Country Club Ln,Jacque Pulling,Anderson,Interim Care,Rem Occazio Llc,(765)643-9734,IN,46015,,39.46607379359045,-86.40022527998268
550,4312 W Hummingbird Way,Jacque Pulling,Muncie,Interim Care,Rem Occazio Llc,(765)289-4227,IN,47304,,40.2087035,-85.43615
551,1012 Parkway Dr,Jacque Pulling,Anderson,Interim Care,Rem Occazio Llc,(765)642-4117,IN,46012,,40.104188501126195,-85.62966464306409
552,23 Skyview Dr,Jacque Pulling,Chesterfield,Interim Care,Rem Occazio Llc,(765)378-5268,IN,46017,,40.1147708,-85.6093363
553,10311 E Jackson,Jacque Pulling,Selma,Interim Care,Rem Occazio Llc,(765)289-7564,IN,47383,,40.192880450000004,-85.36577299999999
554,201 N Manngrove Dr,Jacque Pulling,Muncie,Interim Care,Rem Occazio Llc,(765)288-0231,IN,47303,,40.19526888693041,-85.34189678806815
555,2234 Q Ave,Jacque Pulling,New Castle,Interim Care,Rem Occazio Llc,(765)529-8365,IN,47362,,39.909579870818966,-85.35896265399101
556,38 Ryan Dr,Jacque Pulling,Trafalgar,Interim Care,Rem Occazio Llc,(317)878-5149,IN,46181,,39.41029625,-86.16260405
557,1503 Washington St,Elizabeth Nelson,New Castle,Interim Care,Rem Occazio Llc,(765)529-8385,IN,47362,,39.78811145,-86.02250775877457
558,11 Gloria Dr,Elizabeth Nelson,Trafalgar,Interim Care,Rem Occazio Llc,(317)878-4267,IN,46181,,39.414738636373094,-86.15677924617596
559,1015 S 14Th St,Jacque Pulling,New Castle,Interim Care,Rem Occazio Llc,(765)529-8386,IN,47362,,39.1756695,-86.54629048148148
560,1650 E Jefferson St,Jacque Pulling,Franklin,Interim Care,Rem Occazio Llc,(317)738-2343,IN,46131,,38.2770227,-85.7371604
561,373 S Baldwin St,Jacque Pulling,Bargersville,Interim Care,Rem Occazio Llc,(317)422-9334,IN,46106,,51.51431770000001,-0.05305208129496335
562,1206 S Main St,Jacque Pulling,New Castle,Interim Care,Rem Occazio Llc,(765)546-0042,IN,47362,,34.806520649999996,-106.72111429887941
563,699 Graham St Apts 2 & 8,Elizabeth Nelson,Franklin,Interim Care,Rem Occazio Llc,(317)736-8990,IN,46131,,39.487273889866,-86.055093800271
564,3938 Prange Drive,Jacque Pulling,Lafayette,Interim Care,Rem-Indiana Inc,(765)449-0501,IN,47905,,40.42805155136505,-86.83383729940317
565,1221 Warren Dr,Jacque Pulling,Lafayette,Interim Care,Rem-Indiana Inc,(765)474-9895,IN,47905,,39.7852951,-86.0472668
566,124 Black Hawk Lane,Elizabeth Nelson,West Lafayette,Interim Care,Rem-Indiana Inc,(765)463-2744,IN,47906,,40.443934150000004,-86.9105969997978
567,3031 E Kessler,Jacque Pulling,Indianapolis,Interim Care,Rem-Indiana Inc,(317)254-9079,IN,46220,,39.861919400000005,-86.11256424920585
568,7310 E 55Th St,Elizabeth Nelson,Indianapolis,Interim Care,Rem-Indiana Inc,(317)545-1837,IN,46226,,39.854275799999996,-86.04026837697111
569,6338 Graham Rd,Jacque Pulling,Indianapolis,Interim Care,Rem-Indiana Inc,(317)251-7102,IN,46220,,39.8720278,-86.07075167680804
570,5625 E 56Th St,Jacque Pulling,Indianapolis,Interim Care,Rem-Indiana Inc,(317)581-2380,IN,46226,,39.854461099999995,-86.07092295231651
571,5662 N Crestview Ave,Jacque Pulling,Indianapolis,Interim Care,Rem-Indiana Inc,(317)251-5727,IN,46220,,39.856697749999995,-86.13762127735014
572,3201 Davis Road,Jacque Pulling,Indianapolis,Interim Care,Rem-Indiana Inc,(317)894-2091,IN,46229,,39.7228106,-85.9890657794648
573,7555 Grandview Dr,Jacque Pulling,Indianapolis,Interim Care,Rem-Indiana Inc,(317)255-2043,IN,46260,,39.89163445,-86.18746372451298
574,4313 E 46Th St,Jacque Pulling,Indianapolis,Interim Care,Rem-Indiana Inc,(317)545-4647,IN,46226,,39.83984575,-86.09521338091213
575,2113 E Kessler Blvd,Jacque Pulling,Indianapolis,Interim Care,Rem-Indiana Inc,(317)251-5485,IN,46220,,39.86198765,-86.12531123935621
576,3025 Greenhills Ln S,Jacque Pulling,Indianapolis,Interim Care,Rem-Indiana Inc,(317)925-5951,IN,46222,,39.7763425,-86.2094645
577,1406 W Tarkington Dr,Jacque Pulling,Greensburg,Interim Care,Rem-Indiana Inc,(812)662-8626,IN,47240,,39.35439450602238,-85.50119421246802
578,82 Benny Ln,Jacque Pulling,North Vernon,Interim Care,Rem-Indiana Inc,(812)346-6858,IN,47265,,39.0118988,-85.643843
579,645 E Bridge St,Elizabeth Nelson,Brownstown,Interim Care,Rem-Indiana Inc,(812)358-2725,IN,47220,,39.6450406,-87.1775148
580,10606 Haverstick,Elizabeth Nelson,Carmel,Interim Care,Rem-Indiana Inc,(317)571-8927,IN,46032,,39.9417035,-86.0985523
581,926 S Tenth St,Jacque Pulling,Lafayette,Interim Care,Rem-Indiana Inc,(765)423-4280,IN,47905,,45.03640421791891,-74.71826204852323
582,1221 E Cr 75 N,Jacque Pulling,Logansport,Interim Care,Rem-Indiana Inc,(574)722-1336,IN,46947,,40.777251825773,-86.350678466507
583,860 W 65Th Ln,Jacque Pulling,Merrillville,Interim Care,Rem-Indiana Inc,(219)736-1389,IN,46410,,41.499751480786784,-87.34531686822042
584,211 W 3Rd St,Jacque Pulling,Peru,Interim Care,Rem-Indiana Inc,(765)473-3039,IN,46970,,40.7499479,-86.0747968
585,2715 Rockford Ln,Elizabeth Nelson,Kokomo,Interim Care,Rem-Indiana Inc,(765)455-1756,IN,46902,,40.4534928,-86.15133162075708
586,3142 62Nd Pl E,Jacque Pulling,Hobart,Interim Care,Rem-Indiana Inc,(219)947-4865,IN,46342,,41.5040327,-87.3045852
587,417 W Walnut St,Jacque Pulling,Kokomo,Interim Care,Rem-Indiana Inc,(765)459-0175,IN,46901,,40.48715555,-86.13540689999999
588,8337 N College Ave,Jacque Pulling,Indianapolis,Interim Care,Rem-Indiana Inc,(317)581-2380,IN,46240,,39.90800925,-86.14536204128213
589,7085 Allisonville Rd,Jacque Pulling,Indianapolis,Interim Care,Rem-Indiana Inc,(317)251-7832,IN,46220,,39.882653700000006,-86.08952217160711
590,3606 Highwoods Dr N,Jacque Pulling,Indianapolis,Interim Care,Rem-Indiana Inc,(317)923-3964,IN,46222,,39.820460499999996,-86.21519862424213
591,7044 Castle Manor,Jacque Pulling,Indianapolis,Interim Care,Rem-Indiana Inc,(317)248-0936,IN,46214,,39.7738044,-86.28511092460853
592,7740 Allisonville Rd,Jacque Pulling,Indianapolis,Interim Care,Rem-Indiana Inc,(317)578-0425,IN,46250,,39.8946685,-86.08459831684881
593,4002 Moller Rd,Jacque Pulling,Indianapolis,Interim Care,Rem-Indiana Inc,(317)293-6515,IN,46254,,39.82776255,-86.25680174049234
594,1926 W 75Th Pl,Jacque Pulling,Indianapolis,Interim Care,Rem-Indiana Inc,(317)290-0553,IN,46260,,39.891411,-86.1944957
595,3107 Hensel Dr,Elizabeth Nelson,Carmel,Interim Care,Rem-Indiana Inc,(317)571-8708,IN,46032,,39.9454987,-86.1098471
596,3705 E 116Th St,Jacque Pulling,Carmel,Interim Care,Rem-Indiana Inc,(317)208-7734,IN,46032,,39.9562423,-86.1001603
597,102 Oaktree Ct,Jacque Pulling,Logansport,Interim Care,Rem-Indiana Inc,(574)732-1003,IN,46947,,40.753025821161,-86.300171739246
598,402 Ewing Ln,Amy Kelley,Jeffersonville,Interim Care,Res Care Community Alternatives Se In,(812)258-2370,IN,47130,,38.2894958,-85.7087055
599,154 Chad Dr,Gega Sharp,Versailles,Interim Care,Res Care Community Alternatives Se In,(812)352-6220,IN,47042,,39.23529504354772,-86.61693070132732
600,3011 Apache Dr,Amy Kelley,Jeffersonville,Interim Care,Res Care Community Alternatives Se In,(812)258-2370,IN,47130,,38.354308399999994,-85.68296927308322
601,2401 Cornwell Dr,Amy Kelley,Jeffersonville,Interim Care,Res Care Community Alternatives Se In,(812)258-2370,IN,47130,,38.33530519209407,-85.73928138151757
602,1550 Eagle Point Dr,Amy Kelley,New Salisbury,Interim Care,Res Care Community Alternatives Se In,(812)258-2370,IN,47161,,39.239140750000004,-84.23718101538634
603,13009 Horizon Dr,Amy Kelley,Memphis,Interim Care,Res Care Community Alternatives Se In,(812)258-2370,IN,47143,,38.443644095123,-85.810468055025
604,115 Stonegate,Mark Norris,Bedford,Interim Care,Res Care Community Alternatives Se In,(812)352-6220,IN,47421,,38.875871427944,-86.386969160538
605,1818 H St,Mark Norris,Bedford,Interim Care,Res Care Community Alternatives Se In,(812)352-6220,IN,47421,,38.8579264,-86.4809438
606,1337 E Southview Ln,Amy Kelley,Paoli,Interim Care,Res Care Community Alternatives Se In,(812)258-2370,IN,47454,,38.56329745,-86.48310427142175
607,427 W Longest St,Amy Kelley,Paoli,Interim Care,Res Care Community Alternatives Se In,(812)258-2370,IN,47454,,38.567170169353794,-86.47451628747648
608,749 South Bears Bend  Road,Amy Kelley,French Lick,Interim Care,Res Care Community Alternatives Se In,(812)258-2370,IN,47432,,12.93309065,77.6306777999996
609,3607 Middle Rd,Amy Kelley,Jeffersonville,Interim Care,Res Care Community Alternatives Se In,(812)258-2370,IN,47130,,38.16443503167034,-86.05088973579359
610,1031 West St,Amy Kelley,New Albany,Interim Care,Res Care Community Alternatives Se In,(812)258-2370,IN,47150,,40.43664305,-86.89846046480159
611,13711 Bennettsville Rd,Amy Kelley,Memphis,Interim Care,Res Care Community Alternatives Se In,(812)258-2370,IN,47143,,38.448614191903,-85.815258816733
612,725 Carr St,Gega Sharp,Milan,Interim Care,Res Care Community Alternatives South Central,(812)352-6220,IN,47031,,39.973068,-86.1380554
613,16611 Sima Gray Rd,Amy Kelley,Henryville,Interim Care,Res Care Southeast Indiana,(812)294-1155,IN,47126,,38.51271515,-85.76746683370024
614,16609 Sima Gray Rd,Amy Kelley,Henryville,Interim Care,Res Care Southeast Indiana,(812)294-3322,IN,47126,,38.511760130129886,-85.76874061677705
615,16613 Sima Gray Rd,Amy Kelley,Henryville,Interim Care,Res Care Southeast Indiana,(812)258-2370,IN,47126,,38.511760130129886,-85.76874061677705
616,1306 S Bloomington Street,Michael Shepherd,Greencastle,Interim Care,Res-Care Inc,(765)653-5738,IN,46135,,39.1725713,-86.51841389074048
617,622 Main St,Teresa Henderson,Rushville,Interim Care,Residential Crf Inc,(765)825-5129,IN,46173,,41.0724703,-85.0211722
618,1725 W Country Club Rd,Teresa Henderson,Connersville,Interim Care,Residential Crf Inc,(765)825-5129,IN,47331,,39.64282625404614,-85.19883286477331
619,1887 S Sr 1,Teresa Henderson,Connersville,Interim Care,Residential Crf Inc,(765)825-5129,IN,47331,,5.451595899999999,-55.178899049081565
620,311 N Dorsett Dr,,Connersville,Interim Care,Residential Crf Inc,(765)825-5129,IN,47331,,39.64523067484023,-85.17947200942618
621,556 S Cr 550 W,Teresa Henderson,Connersville,Interim Care,Residential Crf Inc,(765)825-5129,IN,47331,,41.56239,-85.46952147255502
622,2534 W Sr 44,Teresa Henderson,Liberty,Interim Care,Residential Crf Inc,(765)825-5129,IN,47353,,50.092942050000005,18.54007979115826
623,2375 W Us Hwy 36,Teresa Henderson,Danville,Interim Care,Residential Crf Inc,(765)825-5129,IN,46122,,39.663920250000004,-86.11846880083957
624,2846 W Sr 44,Teresa Henderson,Connersville,Interim Care,Residential Crf Inc,(765)825-5129,IN,47331,,50.092942050000005,18.54007979115826
625,324 W 3Rd St,Teresa Henderson,Connersville,Interim Care,Residential Crf Inc,(765)825-5129,IN,47331,,40.34763015,-94.86931025290991
626,1305 Q Ave,Teresa Henderson,New Castle,Interim Care,Residential Crf Inc,(765)825-5129,IN,47362,,39.909579870818966,-85.35896265399101
627,100 Gray Rd,Teresa Henderson,Connersville,Interim Care,Residential Crf Inc,(765)825-5129,IN,47331,,39.6389907,-85.16423857985232
628,637 E Main St,Teresa Henderson,Danville,Interim Care,Residential Crf Inc,(765)825-5129,IN,46122,,29.43279265,-98.49611609415743
629,1004 Ranch Rd,Teresa Henderson,Connersville,Interim Care,Residential Crf Inc,(765)825-5129,IN,47331,,39.6379672,-85.160391
630,3624 Grand Avenue,,Connersville,Interim Care,Residential Crf Inc,(765)825-5129,IN,47331,,39.63618256289957,-85.14317253760007
631,6155 W 800 N,Teresa Henderson,Fountaintown,Interim Care,Residential Crf Inc,(765)825-5129,IN,46130,,39.639897476576046,-85.79344601049942
632,2228 35Th St,Bitta Dewees,Bedford,Interim Care,Stone Belt Arc Inc,(812)275-4982,IN,47421,,39.135332,-86.50631292447333
633,3502 Festive Dr,Bitta Dewees,Bloomington,Interim Care,Stone Belt Arc Inc,(812)339-2031,IN,47401,,39.130328500000005,-86.57623458842795
634,1835 Maxwell St,Bitta Dewees,Bloomington,Interim Care,Stone Belt Arc Inc,(812)332-7247,IN,47401,,39.14446825,-86.51677889819909
635,713 E Miller Dr,Bitta Dewees,Bloomington,Interim Care,Stone Belt Arc Inc,(812)334-1241,IN,47401,,39.11656,-86.5252209
636,4100 Deckard Dr,Bitta Dewees,Bloomington,Interim Care,Stone Belt Arc Inc,(812)333-1526,IN,47408,,39.173322,-86.48186802782263
637,214 E Southern Dr,Bitta Dewees,Bloomington,Interim Care,Stone Belt Arc Inc,(812)332-9959,IN,47401,,39.148812500000005,-86.53141450000001
638,2606 H St,Bitta Dewees,Bedford,Interim Care,Stone Belt Arc Inc,(812)278-8121,IN,47421,,38.8605624,-86.50728591548534
639,1118 22Nd St,Bitta Dewees,Bedford,Interim Care,Stone Belt Arc Inc,(812)275-5176,IN,47421,,38.8538136,-86.48649
640,1006 W 11Th St,Bitta Dewees,Bloomington,Interim Care,Stone Belt Arc Inc,(812)337-0802,IN,47404,,39.1734606,-86.54590014840878
641,10151 W 93Rd St,Jon Gold,St John,Interim Care,Tradewinds Services Inc,(219)945-0100,IN,46373,,41.43502200861943,-87.46819232225663
642,200 North Lake Park Ave,Jon Gold,Hobart,Interim Care,Tradewinds Services Inc,(219)945-0100,IN,46342,,27.5994708,-81.5019032
643,665 E Burrell Dr,Jonathan Gold,Crown Point,Interim Care,Tradewinds Services Inc,(219)945-0100,IN,46307,,41.39114894286204,-87.35959849993333
644,12046 Forrest Dr,Jon Gold,St John,Interim Care,Tradewinds Services Inc,(219)945-0100,IN,46373,,41.457891428783384,-87.48104414442732
645,8416 Cline Ave,Jon Gold,Crown Point,Interim Care,Tradewinds Services Inc,(219)945-0100,IN,46307,,41.4787099,-87.43202629999999
646,8286 E 101St Ave,Jon Gold,Crown Point,Interim Care,Tradewinds Services Inc,(219)945-0100,IN,46307,,41.43461708566632,-87.22933080890142
647,1603 S Lynhurst Dr,Jacque Pulling,Indianapolis,Interim Care,Transitional Services Sub Llc,(317)581-2380,IN,46241,,39.744305,-86.249754
648,11 Washington St,Jacque Pulling,Brownsburg,Interim Care,Transitional Services Sub Llc,(317)852-6863,IN,46112,,39.83962855,-86.40107063988359
649,4812 W Sr 45,Jacque Pulling,Bloomington,Interim Care,Transitional Services Sub Llc,(812)825-5038,IN,47401,,39.2273512,-86.6024121
650,701 Riley Blvd,Jacque Pulling,Bedford,Interim Care,Transitional Services Sub Llc,(812)275-5071,IN,47421,,38.99757404738953,-85.13030425859353
651,369 W Washington St,Jacque Pulling,Morgantown,Interim Care,Transitional Services Sub Llc,(812)597-4988,IN,46160,,39.37108,-86.26508599526088
652,4155 Ray St,Jacque Pulling,Indianapolis,Interim Care,Transitional Services Sub Llc,(317)244-4333,IN,46241,,39.753480749999994,-86.23417979999999
653,114 S Chestnut St,Jacque Pulling,Huntingburg,Interim Care,Transitional Services Sub Llc,(812)683-5175,IN,47542,,41.7120281,-86.89835961405007
654,359 W 47Th St,Elizabeth Nelson,Indianapolis,Interim Care,Transitional Services Sub Llc,(812)283-3620,IN,46208,,39.8409381,-86.1659419
655,84 S Walnut St,Jacque Pulling,Danville,Interim Care,Transitional Services Sub Llc,(317)745-4364,IN,46122,,39.756457999999995,-86.52933223913044
656,642 Belmont Drive,Jacque Pulling,Evansville,Interim Care,Transitional Services Sub Llc,(812)682-3675,IN,47711,,38.06996027456941,-87.5568299150219
657,4949 Hayes Street,Jacque Pulling,Gary,Interim Care,Transitional Services Sub Llc,(812)849-6743,IN,46408,,39.843394,-86.158917
658,110 W Pike St,Jacque Pulling,Martinsville,Interim Care,Transitional Services Sub Llc,(765)342-4288,IN,46151,,40.45174985,-85.36796555000001
659,205 N Main St,Jacque Pulling,Spencer,Interim Care,Transitional Services Sub Llc,(812)829-3215,IN,47460,,41.675256250000004,-86.2524570503984
660,2944 Dietz St,Jacque Pulling,Indianapolis,Interim Care,Transitional Services Sub Llc,(317)782-9892,IN,46203,,39.7233981,-86.1286559
661,144 Maple St,Jacque Pulling,Lynnville,Interim Care,Transitional Services Sub Llc,(812)922-5690,IN,47619,,43.3081225,-76.34611296628373
662,4516 W Walden Dr,Daniel Fields,Muncie,Interim Care,Voca Corporation Of Indiana,(765)288-9430,IN,47304,,39.90114385,-86.23685840946881
663,8307 Castleton Blvd,Jeff Rubin,Indianapolis,Interim Care,Voca Corporation Of Indiana,(317)578-8608,IN,46256,,39.907517,-86.0211679068559
664,395 N Westchester Dr,Jaela Nichelson,Columbia City,Interim Care,Voca Corporation Of Indiana,(260)244-6253,IN,46725,,41.1654764300416,-85.51154014064528
665,1222 N Bolton Ave,Jeff Rubin,Indianapolis,Interim Care,Voca Corporation Of Indiana,(317)570-5903,IN,46219,,39.78506805,-86.06815940516618
666,5011 Allisonville Rd,Jeff Rubin,Indianapolis,Interim Care,Voca Corporation Of Indiana,(317)570-5903,IN,46205,,39.846706850000004,-86.11092179316034
667,4114 Knollton Rd,Jeff Rubin,Indianapolis,Interim Care,Voca Corporation Of Indiana,(317)570-5903,IN,46228,,39.81541235,-86.23057602567326
668,4160 N Campbell Ave,Jeff Rubin,Indianapolis,Interim Care,Voca Corporation Of Indiana,(317)570-5903,IN,46226,,39.8326284,-86.08069648187451
669,5990 E 500 N,Cindy Gump,Churubusco,Interim Care,Voca Corporation Of Indiana,(260)693-2409,IN,46723,,-4.2209832,-44.7842056
670,408 N Reed St,Jaela Nichelson,South Whitley,Interim Care,Voca Corporation Of Indiana,(260)723-6514,IN,46787,,40.9702387,-84.8660773
671,3814 Walden Run,Jaela Nichelson,Fort Wayne,Interim Care,Voca Corporation Of Indiana,(260)490-3230,IN,46815,,41.113408199999995,-85.06857903197013
672,4208 W Garver St,Daniel Fields,Muncie,Interim Care,Voca Corporation Of Indiana,(765)286-7463,IN,47305,,40.19372722681654,-85.43834938353068
673,3715 W Godman,,Muncie,Interim Care,Voca Corporation Of Indiana,(260)490-3230,IN,47304,,40.189493288848986,-85.42157285351007
674,9 Summit Dr,Gega Sharp,Aurora,Interim Care,Voca Corporation Of Indiana,(812)352-6220,IN,47001,,39.036130069376625,-84.92619665596796
675,3111 N Richardt,Jeff Rubin,Indianapolis,Interim Care,Voca Corporation Of Indiana,(317)541-1938,IN,46226,,39.81377835,-86.06271441909439
676,6525 Mcfarland Rd,Jeff Rubin,Indianapolis,Interim Care,Voca Corporation Of Indiana,(317)359-2076,IN,46227,,39.6721333,-86.1109414
677,6613 Avalon Forest Dr,Jeff Rubin,Indianapolis,Interim Care,Voca Corporation Of Indiana,(317)570-5903,IN,46250,,39.8873169,-86.05246934657858
678,3335 Sanibel Dr,Jaela Nichelson,Fort Wayne,Interim Care,Voca Corporation Of Indiana,(260)490-3230,IN,46815,,41.1151445,-85.0982655
679,810 Carlyle St,Jaela Nichelson,Columbia City,Interim Care,Voca Corporation Of Indiana,(260)244-7506,IN,46725,,41.4205408,-84.8722137
680,100 Bickford Ln,Tami Mussche,Crawfordsville,Long Term Care,1019 Belle's Place Of Crawfordsville,(765)362-2000,IN,47933,,,
681,3037 W Division Rd,Jordan Keeling,Wabash,Long Term Care,1019 Belle's Place Of Wabash,(260)569-2000,IN,46992,,41.16187181926435,-85.6607943400603
682,449 Main St,Zoe Kesler,Anderson,Long Term Care,1019 Senior Living Vermillion Place,(765)622-7825,IN,46016,,12.9806068,77.6358264
683,12011 Whittern Rd,Natasha Graves,Monroeville,Long Term Care,Adams Heritage,(260)623-6440,IN,46773,,40.9775988,-84.8819875
684,1300 Mercer Ave,Alma Ahmetovic,Decatur,Long Term Care,Adams Woodcrest,(260)724-3311,IN,46733,,40.811989350000005,-84.90578109261483
685,2244 Q Ave,Jackie Adams,New Castle,Long Term Care,Addison Place,(765)521-3220,IN,47362,,39.909579870818966,-85.35896265399101
686,780 Dickinson Road,Carol Whitehead,Chesterton,Long Term Care,Addison Pointe Health & Rehabilitation Center,(219)921-2200,IN,46304,,41.584918927629296,-87.03383245620682
687,910 W Walnut St,Sarah Abell,Albany,Long Term Care,Albany Health Care & Rehabilitation Center,(765)789-4423,IN,47320,,40.3013838,-85.2471693
688,1912 S Park Ave,Glenn Burke,Alexandria,Long Term Care,Alexandria Care Center,(765)724-4478,IN,46001,,40.2441243,-85.6711773
689,5226 E 82Nd Street,Sydnie Reed,Indianapolis,Long Term Care,Allison Pointe Healthcare Center,(317)842-6668,IN,46250,,39.90594825,-86.08225070614118
690,10312 Allisonville Rd,Justin Sims,Fishers,Long Term Care,Allisonville Meadows,(317)841-8777,IN,46038,,39.93788635,-86.05452582616974
691,10410 Allisonville Road,Kaitlin Buenavides,Fishers,Long Term Care,Allisonville Meadows Assisted Living,(317)436-6400,IN,46038,,39.93885225,-86.05363110977626
692,2640 Cold Spring Rd,David Reed,Indianapolis,Long Term Care,Alpha Home - A Waters Community,(317)923-1518,IN,46222,,39.7990315,-86.20567199999999
693,3525 E Hanna Ave,Deborah Baah,Indianapolis,Long Term Care,Altenheim Health & Living Community,(317)788-4261,IN,46237,,39.7073987,-86.10508868971004
694,705 E Main St,Jared Glaub,Centerville,Long Term Care,Ambassador Healthcare,(765)855-3424,IN,47330,,39.7772703,-86.180021608092
695,801 E Illinois St,Cindi Lents,Petersburg,Long Term Care,Amber Manor Care Center,(812)354-3001,IN,47567,,41.89610405,-88.74580577908209
696,2026 East 54Th St,Gina Couch,Indianapolis,Long Term Care,American Village,(317)253-6950,IN,46220,,39.8521055,-86.1277921
697,1101 E Coolspring Ave,Todd Smith,Michigan City,Long Term Care,Aperion Care Arbors Michigan City,(219)874-5211,IN,46360,,41.6946724913661,-86.86051214974951
698,10352 N 600 E  County Line Rd,Kelly Deyoung,Demotte,Long Term Care,Aperion Care Demotte,(219)345-5211,IN,46310,,41.532047399999996,-87.43702383141999
699,5430 W Us 40,Jennifer Adams,Greenfield,Long Term Care,Aperion Care Greenfield,(317)894-3301,IN,46140,,39.76380055,-86.15957176382427
700,410 W Lagrange Rd,Jay Nowlin,Hanover,Long Term Care,Aperion Care Hanover,(812)866-2625,IN,47243,,38.71526281929722,-85.47623710149593
701,3518 S Lafountain St,Markia Baker,Kokomo,Long Term Care,Aperion Care Kokomo,(765)453-4666,IN,46902,,40.4359664,-86.1823054
702,1236 Lincoln Ave,Leigh Loney,Evansville,Long Term Care,Aperion Care Lincoln,(812)464-3607,IN,47714,,41.0993106,-85.1589052
703,614 West 14Th Street,Tamera Shirels,Marion,Long Term Care,Aperion Care Marion Llc,(765)662-3701,IN,46953,,40.5163759,-85.66416502625239
704,120 E Miller Dr,Faith Arvin,Bloomington,Long Term Care,Aperion Care Monroe,(812)336-1055,IN,47401,,41.676114,-86.2482922
705,1850 West Matador St,Tammy Matthews,Peru,Long Term Care,Aperion Care Peru,(765)689-5000,IN,46970,,40.671474613221,-86.143752801596
706,34 South Main Street,Tasheena Duncan,Cloverdale,Long Term Care,Aperion Care Summerfield,(765)795-4260,IN,46120,,60.1719659,24.9488108
707,2350 Taft St,Frank Bensema,Gary,Long Term Care,Aperion Care Tolleston Park,(219)977-2600,IN,46404,,41.5760724,-87.3670439
708,"3801 Old Bruceville Road, Box 136",Dianna Strauser,Vincennes,Long Term Care,Aperion Care Vincennes,(812)882-1783,IN,47591,,38.697073600136,-87.480498532767
709,1200 Kitty Hawk Drive,Jeffrey Attinger,Peru,Long Term Care,"Aperion Estates Peru, Llc",(765)689-7305,IN,46970,,36.83518375,-114.05652403108382
710,5202 St Joe Road,Mary Bolling,Fort Wayne,Long Term Care,Arbor Glen Independent & Assisted Living Community,(260)492-2202,IN,46835,,41.1266401,-85.1000298
711,1021 E Central Ave,Debra Mckinley,Greensburg,Long Term Care,Arbor Grove Village,(812)663-8553,IN,47240,,34.5660291,-83.5427252
712,3701 Hodgin Rd,Michelle Ross,Richmond,Long Term Care,Arbor Trace Health & Living Community,(765)939-3701,IN,47374,,39.814115,-84.851587
713,1635 N Arlington Ave,Shawn Dent,Indianapolis,Long Term Care,Arlington Place Health Campus,(317)353-6000,IN,46218,,39.7900616,-86.0629958061905
714,102 W Poplar St,Eric Ahlbrand,Greencastle,Long Term Care,Asbury Towers Health Care Center,(765)653-5148,IN,46135,,50.1196999,8.6582463
715,515 N Main St,Marie Wallace,Avilla,Long Term Care,Ascension Living Sacred Heart Village,(260)897-2841,IN,46710,,40.6210026,-75.3822229
716,2200 N Riley Hwy,Zachary Simpson,Shelbyville,Long Term Care,Ashford Place Health Campus,(317)398-8422,IN,46176,,39.556326,-85.775717
717,4111 Park Place Drive,Derek Gibson,Fort Wayne,Long Term Care,Ashton Creek Health And Rehabilitation Center,(260)373-2111,IN,46845,,41.188569,-85.0920456
718,2320 N Montgomery Road,Mikayla Schneider,Greensburg,Long Term Care,Aspen Place Health Campus,(812)527-2222,IN,47240,,39.3459922488752,-85.4726866147292
719,3154 South State Road 135,Emily Carnes,Greenwood,Long Term Care,Aspen Trace Health & Living Community,(317)535-3344,IN,46143,,39.716978749999996,-86.22540142409198
720,10002 Columbia Ave,Alyssa Fusco,Munster,Long Term Care,Assisted Living At Hartsfield Village,(219)934-0580,IN,46321,,41.5441409620373,-87.50686718695391
721,123 South Depot Street,Amber Busald,Batesville,Long Term Care,Assisted Living At Romweber Flats,(812)932-3528,IN,47006,,41.23016405,-85.31854425278206
722,741 Park East Blvd,Cari Branshaw,Lafayette,Long Term Care,Aster Place,(765)446-3540,IN,47905,,40.42887261227776,-87.28367683609011
723,1675 W Seventh Street,Grace Faurote,Auburn,Long Term Care,"Auburn Senior Living, Llc",(260)908-8300,IN,46706,,41.6398977,-85.08136908005437
724,1751 Wesley Road,Derek Moss,Auburn,Long Term Care,Auburn Village,(260)925-5494,IN,46706,,41.37020642597521,-85.03451308651516
725,98 North 10Th Street,Michelle Mcclure,Greencastle,Long Term Care,Autumn Glen,(765)653-6999,IN,46135,,43.9185862,-123.0295771394864
726,600 Washington Ave,Michael Wolfe,Wabash,Long Term Care,Autumn Ridge Rehabilitation Centre,(260)563-8402,IN,46992,,47.3332284,-118.6789508
727,2911 Green Valley Rd,Brandy D'Angelo,New Albany,Long Term Care,Autumn Woods Health Campus,(812)941-9893,IN,47150,,38.32062715,-85.83836083730728
