INDEX,FACILITY_TYPE,NAME,ADDRESS,CITY,ST,ZIP,ADMINISTRATOR,PHONE,OWNER,lat,long
0,Birthing Center,Tree Of Life Birth Center,1214 Spring St,Jeffersonville,IN,47130,Elizabeth Quinkert,(812)920-1580,N/A,38.328749,-85.69956075
1,Blood Center,Biolife Plasma Services Lp,1565 South Liberty Dr,Bloomington,IN,47403,,(812)334-1405,N/A,39.153038,-86.5741927
2,Blood Center,"Biomat Usa, Inc","5341 E Thompson Rd,",Indianapolis,IN,46237,,(317)974-9494,N/A,39.689779650000006,-86.05585634
3,Blood Center,"Biomat Usa, Inc",110 W Ridge Rd,Griffith,IN,46319,,(219)513-4222,N/A,39.450405,-86.5730759
4,Blood Center,"Csl Plasma, Inc","5905 Madison Ave, Suite E",Indianapolis,IN,46227,,(317)808-5998,N/A,39.680674800000006,-86.12954998
5,Blood Center,"Csl Plasma, Inc",4025 W 3Rd St,Bloomington,IN,47404,,(812)558-2257,N/A,39.21651,-86.58463611
6,Blood Center,"Csl Plasma, Inc",7750 E Ridge Rd,Hobart,IN,46342,,(219)484-2099,N/A,39.450405,-86.5730759
7,Blood Center,Grifols Bio Supplies Inc,3902 S Madison Avenue,Indianapolis,IN,46227,,(317)786-4470,N/A,39.709854,-86.1145295
8,Blood Center,Join Parachute- Columbus,699 Creekview Dr,Columbus,IN,47201,,(812)416-5891,N/A,39.20521268030484,-85.88410173
9,Home Health Agency,Care4U Home Health Services Inc,6213 Royal Gate Pl,Indianapolis,IN,46237,Pardeep Gill,(317)567-3448,N/A,39.64261265,-86.05944442
10,Home Health Agency,Family Palliative Care,213 Us 231,Jasper,IN,47546,Lori Persohn,(812)996-0674,N/A,38.389156,-86.9415595
11,Home Health Agency,Lifespan Home Health Llc,800 N Bell Trace Cir,Bloomington,IN,47408,Jennifer Norris,(812)332-2355,N/A,39.16978305,-86.49023224
12,Home Health Agency,Pentec Health Inc,48 North Emerson Avenue Suite 300,Greenwood,IN,46143,Keri Johnson,(317)807-1551,N/A,39.6164481,-86.082742
13,Hospice,Ascent Hospice Llc,1930 Edison Road,South Bend,IN,46617,,(574)213-2727,N/A,39.6729812,-86.19506769
14,Hospital,Ascension St Vincent Jennings,301 Henry St,North Vernon,IN,47265,Christina Crank,(812)352-4228,N/A,39.0103129,-85.64108477
15,Hospital,Ascension St Vincent Salem,911 N Shelby St,Salem,IN,47167,Donna Cassidy,(812)883-5881,N/A,38.613387,-86.10730541
16,Hospital,Ascension St Vincent Warrick,1116 Millis Ave,Boonville,IN,47601,Alexander Chang,(812)897-4800,N/A,38.0421806,-87.2628586
17,Hospital,Baptist Health Floyd,1850 State St,New Albany,IN,47150,Michael Schroyer,(812)944-7701,N/A,38.301249,-85.83390816
18,Hospital,Bloomington Meadows Hospital,3600 N Prow Rd,Bloomington,IN,47404,Christine Schultz,(812)331-8000,N/A,39.20605315,-86.55098737
19,Hospital,Bloomington Regional Rehabilitation Hospital Llc,3050 N Lintel Drive,Bloomington,IN,47404,Andrew Keen,(812)336-2815,N/A,39.2025645,-86.5905282
20,Hospital,Brentwood Springs,4488 Roslin Rd,Newburgh,IN,47630,John Strachan,(812)858-7200,N/A,37.992979250000005,-87.33168074
21,Hospital,Brightwell Behavioral Health,1612 Blackiston View Drive,Clarksville,IN,47129,Rosa Mcgowen,(574)339-3094,N/A,38.3203711,-85.7673302
22,Hospital,Columbus Regional Hospital,2400 E 17Th St,Columbus,IN,47201,Jacob Baker,(812)379-4441,N/A,39.21817825,-85.89501241
23,Hospital,Community Health Network Rehabilitation Hosp So,607 South Greenwood Springs Drive,Greenwood,IN,46143,Michelle Russell,(317)215-3808,N/A,39.6281387,-86.0755379
24,Hospital,Community Hospital South,1402 E County Line Rd S,Indianapolis,IN,46227,Elizabeth Tharp,(317)887-7000,N/A,39.63728905,-86.13248842
25,Hospital,Daviess Community Hospital,1314 E Walnut St,Washington,IN,47501,Dana Muntz,(812)254-2760,N/A,38.65937665,-87.15976061
26,Hospital,Decatur County Memorial Hospital,720 N Lincoln St,Greensburg,IN,47240,Rex Mckinney,(812)663-4331,N/A,39.3443663,-85.47807964
27,Hospital,Encompass Health Deaconess Rehabilitation Hospital,9355 Warrick Trail,Newburgh,IN,47630,Blake Bunner,(812)476-9983,N/A,37.9785544,-87.42002238
28,Hospital,Franciscan Health Indianapolis,8111 S Emerson Ave,Indianapolis,IN,46237,Lori Price,(317)528-5000,N/A,39.64839485,-86.07878194
29,Hospital,Franciscan Health Mooresville,1201 Hadley Rd,Mooresville,IN,46158,Lori Price,(317)831-1160,N/A,39.6071477,-86.3557136
30,Hospital,Greene County General Hospital,1185 N 1000 W,Linton,IN,47441,Brenda Reetz,(812)847-2281,N/A,39.0395837,-87.1292062
31,Hospital,Harrison County Hospital,1141 Hospital Dr Nw,Corydon,IN,47112,Lisa Clunie,(812)738-4251,N/A,38.237854850000005,-86.14756256
32,Hospital,Incompass Healthcare,285 Bielby Rd,Lawrenceburg,IN,47025,Greg Duncan,(812)537-1302,N/A,39.1116132,-84.8821125
33,Hospital,Indiana University Health Bedford Hospital,2900 W 16Th St,Bedford,IN,47421,Larry Bailey,(812)275-1200,N/A,38.858581650000005,-86.51291627
34,Hospital,Indiana University Health Paoli Hospital,642 W Hospital Rd,Paoli,IN,47454,Michele Ridge,(812)723-2811,N/A,38.56820835,-86.47501796
35,Hospital,Iu Health Bloomington Hospital,2651 East Discovery Parkway,Bloomington,IN,47408,Denzil Ross,(812)353-5252,N/A,39.17734385,-86.50352701
36,Hospital,Johnson Memorial Hospital,1125 W Jefferson St,Franklin,IN,46131,David Dunkle,(317)736-3300,N/A,39.4795986,-86.07711236
37,Hospital,Madison State Hospital,711 Green Rd,Madison,IN,47250,Peggy Stephens,(812)265-2611,N/A,38.7457725,-85.40184497
38,Hospital,Major Hospital,2451 Intelliplex Dr,Shelbyville,IN,46176,John Horner,(317)392-3211,N/A,39.56038565,-85.78590578
39,Hospital,Margaret Mary Health,321 Mitchell Ave,Batesville,IN,47006,Liz Leising,(812)934-6624,N/A,39.3052395,-85.22310788
40,Hospital,Medical Behavioral Hospital Of Indianapolis,1167 Wilson Dr,Greenwood,IN,46143,Greg Justice,(844)457-5300,N/A,39.71897453487411,-85.88450533
41,Hospital,Memorial Hospital And Health Care Center,800 W 9Th St,Jasper,IN,47546,Keith Miller,(812)996-2345,N/A,38.39512575,-86.940774
42,Hospital,Monroe Hospital,4011 S Monroe Medical Park Blvd,Bloomington,IN,47403,Luis Leon,(812)825-1111,N/A,39.1203582,-86.57181037
43,Hospital,Norton Clark Hospital,1220 Missouri Ave,Jeffersonville,IN,47130,Kathleen Exline,(812)283-2147,N/A,38.281978,-85.74935234
44,Hospital,Norton Scott Hospital,1451 N Gardner St,Scottsburg,IN,47170,Kathleen Exline,(812)752-3456,N/A,38.70528095,-85.78644731
45,Hospital,Norton-King's Daughters' Health,1373 East Sr 62,Madison,IN,47250,Carol Dozier,(812)801-0105,N/A,38.79112635,-85.36445908
46,Hospital,Pam Health Rehabilitation Hospital Of Greater Indi,2101 Broadway Street,Clarksville,IN,47129,Waylon Maynard,(812)913-6880,N/A,38.3294451,-85.7657752
47,Hospital,Perry County Memorial Hospital,8885 Sr 237,Tell City,IN,47586,Jared Stimpson,(812)547-7011,N/A,37.9674866,-86.73178189
48,Hospital,Physicians' Medical Center Llc,4023 Reas Ln,New Albany,IN,47150,Dennis Medley,(812)206-7660,N/A,38.34001765,-85.82798862
49,Hospital,Rush Memorial Hospital,1300 N Main St,Rushville,IN,46173,Bradley Smith,(765)932-7513,N/A,39.6217371,-85.44384898
50,Hospital,Schneck Medical Center,411 W Tipton St,Seymour,IN,47274,Eric Fish,(812)522-2349,N/A,38.9551568,-85.89181351
51,Hospital,St Elizabeth Dearborn Hospital,600 Wilson Creek Rd,Lawrenceburg,IN,47025,Chris Carle,(812)497-7665,N/A,39.11104025,-84.88327855
52,Hospital,The Women's Hospital,4199 Gateway Blvd,Newburgh,IN,47630,Christina Ryan,(812)842-4200,N/A,37.9745541,-87.44769918
53,Hospital,Valle Vista Health System,898 E Main St,Greenwood,IN,46143,Kristen Primeau,(317)883-5300,N/A,39.585888350000005,-86.08374181
54,Hospital,Wellstone Regional Hospital,2700 Vissing Park Rd,Jeffersonville,IN,47130,Gregory Stewart,(812)284-8000,N/A,38.32690075,-85.70944954
55,Interim Care,Adec Inc,19816-3 Sr 120,Bristol,IN,46507,Donna Belusar,(574)848-7453,N/A,39.72426455,-86.08524791
56,Interim Care,"Arc Southwest Indiana, The",400 Mill St,Winslow,IN,47598,Stan Keepes,(812)386-6312,N/A,38.3431073,-87.0538905
57,Interim Care,Benchmark Human Services,9228 W Cr 950 N,Elizabethtown,IN,47232,Anne Titus,(260)744-6145,N/A,39.1220777,-85.76663375
58,Interim Care,Benchmark Human Services,9285 W Cr 950 N,Elizabethtown,IN,47232,Anne Titus,(260)744-6145,N/A,39.1220777,-85.76663375
59,Interim Care,Benchmark Human Services,2405 W County Road 200 North,North Vernon,IN,47265,Anne Titus,(260)744-6145,N/A,39.005881,-85.62416911
60,Interim Care,Bi-County Services Inc,423 E Silver Street,Bluffton,IN,46714,Timothy Ramsey,(260)824-1253,N/A,38.6280492,-84.56882664
61,Interim Care,Blue River Services Inc,293 Summit View Drive,Corydon,IN,47112,Daniel Lowe,(812)738-4557,N/A,39.617184,-86.18108236
62,Interim Care,Blue River Services Inc,281 Mcgrain St,Corydon,IN,47112,Daniel Lowe,(812)738-7904,N/A,38.2219637,-86.1325561
63,Interim Care,Blue River Services Inc,3607 Klerner Ln,New Albany,IN,47150,Daniel Lowe,(812)945-6781,N/A,38.3330899,-85.8082709
64,Interim Care,Community Alternatives Sw In,651 South 100 East,Washington,IN,47501,Amy Kelley,(812)352-6220,N/A,38.6570866,-87.17427223
65,Interim Care,Community Alternatives Sw In,4555 Elm Dr,Newburgh,IN,47630,Carissa Foster,(812)433-3535,N/A,37.96741549836783,-87.39796409
66,Interim Care,Community Alternatives Sw In,2745 Windemere Dr,Evansville,IN,47725,Carissa Foster,(812)433-3535,N/A,38.063817300004985,-87.51584654
67,Interim Care,Community Alternatives Sw In,525 S Skyview Dr,Jasper,IN,47546,Amy Kelley,(812)683-3798,N/A,38.379561800000005,-86.97042275
68,Interim Care,Community Alternatives Sw In,6611 Cheshire Dr,Newburgh,IN,47630,Carissa Foster,(812)433-3535,N/A,37.99443986992624,-87.370781
69,Interim Care,Developmental Service Alternatives,314 W 13Th St,Anderson,IN,46016,Jeremy Bowser,(765)649-3198,N/A,38.307544,-86.9559677
70,Interim Care,Developmental Service Alternatives,2326 Berwick Dr,Shelbyville,IN,46176,Jeremy Bowser,(317)398-0000,N/A,39.50033379686613,-85.79812774
71,Interim Care,Developmental Services Inc,3100 W Private Rd 385 N,North Vernon,IN,47265,Pamela Pace,(812)376-9404,N/A,39.0601448,-85.6640607
72,Interim Care,Developmental Services Inc,3839 Camelot Ln,Columbus,IN,47203,Pamela Pace,(812)376-9404,N/A,39.2276929,-85.8770513
73,Interim Care,Developmental Services Inc,4251 River Rd,Columbus,IN,47203,Pamela Pace,(812)376-9404,N/A,39.2452231,-85.9171875
74,Interim Care,Developmental Services Inc,426 E Montgomery Rd.,Greensburg,IN,47240,Pamela Pace,(812)376-9404,N/A,39.355623100677775,-85.4677809
75,Interim Care,Developmental Services Inc,830 Evergreen Drive,Seymour,IN,47274,Pamela Pace,(812)376-9404,N/A,38.94883023115902,-85.88484197
76,Interim Care,Developmental Services Inc,113 Jennings St,North Vernon,IN,47265,Pamela Pace,(812)376-9404,N/A,39.00602395,-85.62617912
77,Interim Care,Developmental Services Inc,583 Camelot Dr,Seymour,IN,47274,Pamela Pace,(812)376-9404,N/A,38.9622303,-85.9104137
78,Interim Care,Developmental Services Inc,339 W Jefferson St,Spencer,IN,47460,Steve Burton,(812)829-1833,N/A,39.2840296,-86.7663221
79,Interim Care,Developmental Services Inc,1922 Limestone Dr,Ellettsville,IN,47429,Steve Burton,(812)876-8721,N/A,39.2410991,-86.61262
80,Interim Care,Developmental Services Inc,1826 S Covey Lane,Bloomington,IN,47401,Steve Burton,(812)332-9615,N/A,39.162039500000006,-86.51143318
81,Interim Care,In-Pact Inc,605 Sherwood Drive,Crown Point,IN,46307,Deanne Holmes,(219)662-1905,N/A,39.712888500000005,-86.09073393
82,Interim Care,Knox County Association For Remarkable Citizens,410 Liberty Street,Bicknell,IN,47512,Nash Dunn,(812)895-0059,N/A,38.2998148,-86.9544987
83,Interim Care,Normal Life Of Indiana,3000 Bailey Ln,Evansville,IN,47710,Carissa Foster,(812)433-3535,N/A,38.0955145,-87.51074931
84,Interim Care,Putnam County Comprehensive Services Inc,1222 Bloomington,Greencastle,IN,46135,Charles Schroeder,(765)653-9763,N/A,39.174396,-86.5491793
85,Interim Care,Quality Community Services Inc,108 Altra Dr,Clarksville,IN,47129,Judy Brettsschneider,(812)285-8710,N/A,38.31679427911493,-85.77054114
86,Interim Care,Quality Community Services Inc,4 Sylvan Ln,Jeffersonville,IN,47130,Judy Brettsschneider,(812)282-7148,N/A,38.30413540061812,-85.69261967
87,Interim Care,Quality Community Services Inc,1620 Shelby Pl,New Albany,IN,47150,Judy Brettsschneider,(812)948-8183,N/A,38.29631825,-85.81220044
88,Interim Care,Rehabilitation Center Developmental Services,428 Cypress,Newburgh,IN,47630,M Kelley Schneider,(812)858-5238,N/A,37.94639605,-87.41184122
89,Interim Care,Rehabilitation Center Developmental Services,420 Fuquay Rd,Evansville,IN,47715,M Kelley Schneider,(812)473-1414,N/A,37.9716302,-87.4595196
90,Interim Care,Rem Occazio Llc,568 Yorktown Rd,Greenwood,IN,46142,Jacque Pulling,(317)887-6574,N/A,39.6082512,-86.1401709
91,Interim Care,Rem Occazio Llc,511 Country Club Ln,Anderson,IN,46015,Jacque Pulling,(765)643-9734,N/A,39.46607379359045,-86.40022528
92,Interim Care,Rem Occazio Llc,38 Ryan Dr,Trafalgar,IN,46181,Jacque Pulling,(317)878-5149,N/A,39.41029625,-86.16260405
93,Interim Care,Rem Occazio Llc,11 Gloria Dr,Trafalgar,IN,46181,Elizabeth Nelson,(317)878-4267,N/A,39.41473863637309,-86.15677925
94,Interim Care,Rem Occazio Llc,1015 S 14Th St,New Castle,IN,47362,Jacque Pulling,(765)529-8386,N/A,39.1756695,-86.54629048
95,Interim Care,Rem Occazio Llc,1650 E Jefferson St,Franklin,IN,46131,Jacque Pulling,(317)738-2343,N/A,38.2770227,-85.7371604
96,Interim Care,Rem Occazio Llc,699 Graham St Apts 2 & 8,Franklin,IN,46131,Elizabeth Nelson,(317)736-8990,N/A,39.48727389,-86.0550938
97,Interim Care,Rem-Indiana Inc,3201 Davis Road,Indianapolis,IN,46229,Jacque Pulling,(317)894-2091,N/A,39.7228106,-85.98906578
98,Interim Care,Rem-Indiana Inc,1406 W Tarkington Dr,Greensburg,IN,47240,Jacque Pulling,(812)662-8626,N/A,39.35439450602238,-85.50119421
99,Interim Care,Rem-Indiana Inc,82 Benny Ln,North Vernon,IN,47265,Jacque Pulling,(812)346-6858,N/A,39.0118988,-85.643843
100,Interim Care,Res Care Community Alternatives Se In,402 Ewing Ln,Jeffersonville,IN,47130,Amy Kelley,(812)258-2370,N/A,38.2894958,-85.7087055
101,Interim Care,Res Care Community Alternatives Se In,154 Chad Dr,Versailles,IN,47042,Gega Sharp,(812)352-6220,N/A,39.23529504354772,-86.6169307
102,Interim Care,Res Care Community Alternatives Se In,3011 Apache Dr,Jeffersonville,IN,47130,Amy Kelley,(812)258-2370,N/A,38.3543084,-85.68296927
103,Interim Care,Res Care Community Alternatives Se In,2401 Cornwell Dr,Jeffersonville,IN,47130,Amy Kelley,(812)258-2370,N/A,38.33530519209407,-85.73928138
104,Interim Care,Res Care Community Alternatives Se In,13009 Horizon Dr,Memphis,IN,47143,Amy Kelley,(812)258-2370,N/A,38.4436441,-85.81046806
105,Interim Care,Res Care Community Alternatives Se In,115 Stonegate,Bedford,IN,47421,Mark Norris,(812)352-6220,N/A,38.87587143,-86.38696916
106,Interim Care,Res Care Community Alternatives Se In,1818 H St,Bedford,IN,47421,Mark Norris,(812)352-6220,N/A,38.8579264,-86.4809438
107,Interim Care,Res Care Community Alternatives Se In,1337 E Southview Ln,Paoli,IN,47454,Amy Kelley,(812)258-2370,N/A,38.56329745,-86.48310427
108,Interim Care,Res Care Community Alternatives Se In,427 W Longest St,Paoli,IN,47454,Amy Kelley,(812)258-2370,N/A,38.567170169353794,-86.47451629
109,Interim Care,Res Care Community Alternatives Se In,3607 Middle Rd,Jeffersonville,IN,47130,Amy Kelley,(812)258-2370,N/A,38.16443503167034,-86.05088974
110,Interim Care,Res Care Community Alternatives Se In,13711 Bennettsville Rd,Memphis,IN,47143,Amy Kelley,(812)258-2370,N/A,38.44861419,-85.81525882
111,Interim Care,Res Care Southeast Indiana,16611 Sima Gray Rd,Henryville,IN,47126,Amy Kelley,(812)294-1155,N/A,38.51271515,-85.76746683
112,Interim Care,Res Care Southeast Indiana,16609 Sima Gray Rd,Henryville,IN,47126,Amy Kelley,(812)294-3322,N/A,38.511760130129886,-85.76874062
113,Interim Care,Res Care Southeast Indiana,16613 Sima Gray Rd,Henryville,IN,47126,Amy Kelley,(812)258-2370,N/A,38.511760130129886,-85.76874062
114,Interim Care,Res-Care Inc,1306 S Bloomington Street,Greencastle,IN,46135,Michael Shepherd,(765)653-5738,N/A,39.1725713,-86.51841389
115,Interim Care,Residential Crf Inc,1725 W Country Club Rd,Connersville,IN,47331,Teresa Henderson,(765)825-5129,N/A,39.64282625404614,-85.19883286
116,Interim Care,Residential Crf Inc,311 N Dorsett Dr,Connersville,IN,47331,,(765)825-5129,N/A,39.64523067484023,-85.17947201
117,Interim Care,Residential Crf Inc,2375 W Us Hwy 36,Danville,IN,46122,Teresa Henderson,(765)825-5129,N/A,39.66392025,-86.1184688
118,Interim Care,Residential Crf Inc,100 Gray Rd,Connersville,IN,47331,Teresa Henderson,(765)825-5129,N/A,39.6389907,-85.16423858
119,Interim Care,Residential Crf Inc,1004 Ranch Rd,Connersville,IN,47331,Teresa Henderson,(765)825-5129,N/A,39.6379672,-85.160391
120,Interim Care,Residential Crf Inc,3624 Grand Avenue,Connersville,IN,47331,,(765)825-5129,N/A,39.63618256289957,-85.14317254
121,Interim Care,Residential Crf Inc,6155 W 800 N,Fountaintown,IN,46130,Teresa Henderson,(765)825-5129,N/A,39.639897476576046,-85.79344601
122,Interim Care,Stone Belt Arc Inc,2228 35Th St,Bedford,IN,47421,Bitta Dewees,(812)275-4982,N/A,39.135332,-86.50631292
123,Interim Care,Stone Belt Arc Inc,3502 Festive Dr,Bloomington,IN,47401,Bitta Dewees,(812)339-2031,N/A,39.130328500000005,-86.57623459
124,Interim Care,Stone Belt Arc Inc,1835 Maxwell St,Bloomington,IN,47401,Bitta Dewees,(812)332-7247,N/A,39.14446825,-86.5167789
125,Interim Care,Stone Belt Arc Inc,713 E Miller Dr,Bloomington,IN,47401,Bitta Dewees,(812)334-1241,N/A,39.11656,-86.5252209
126,Interim Care,Stone Belt Arc Inc,4100 Deckard Dr,Bloomington,IN,47408,Bitta Dewees,(812)333-1526,N/A,39.173322,-86.48186803
127,Interim Care,Stone Belt Arc Inc,214 E Southern Dr,Bloomington,IN,47401,Bitta Dewees,(812)332-9959,N/A,39.148812500000005,-86.5314145
128,Interim Care,Stone Belt Arc Inc,2606 H St,Bedford,IN,47421,Bitta Dewees,(812)278-8121,N/A,38.8605624,-86.50728592
129,Interim Care,Stone Belt Arc Inc,1118 22Nd St,Bedford,IN,47421,Bitta Dewees,(812)275-5176,N/A,38.8538136,-86.48649
130,Interim Care,Stone Belt Arc Inc,1006 W 11Th St,Bloomington,IN,47404,Bitta Dewees,(812)337-0802,N/A,39.1734606,-86.54590015
131,Interim Care,Transitional Services Sub Llc,4812 W Sr 45,Bloomington,IN,47401,Jacque Pulling,(812)825-5038,N/A,39.2273512,-86.6024121
132,Interim Care,Transitional Services Sub Llc,701 Riley Blvd,Bedford,IN,47421,Jacque Pulling,(812)275-5071,N/A,38.99757404738953,-85.13030426
133,Interim Care,Transitional Services Sub Llc,369 W Washington St,Morgantown,IN,46160,Jacque Pulling,(812)597-4988,N/A,39.37108,-86.265086
134,Interim Care,Transitional Services Sub Llc,2944 Dietz St,Indianapolis,IN,46203,Jacque Pulling,(317)782-9892,N/A,39.7233981,-86.1286559
135,Interim Care,Voca Corporation Of Indiana,9 Summit Dr,Aurora,IN,47001,Gega Sharp,(812)352-6220,N/A,39.03613006937663,-84.92619666
136,Interim Care,Voca Corporation Of Indiana,6525 Mcfarland Rd,Indianapolis,IN,46227,Jeff Rubin,(317)359-2076,N/A,39.6721333,-86.1109414
137,Long Term Care,St Elizabeth Edgewood Snf,1 Medical Village Drive,Edgewood,KY,41017,Amy Thompson,(859)301-9980,"St. Elizabeth Medical Center, Inc.",39.00798015,-84.56477548
138,Portable X-Ray Suppliers,St Elizabeth Healthcare - Edgewood Mobile Imaging,1 Medical Village Drive,Edgewood,KY,41017,Brian Drees,(859)301-3975,St. Elizabeth Healthcare,39.00798015,-84.56477548
139,Long Term Care,Aperion Care Vincennes,"3801 Old Bruceville Road, Box 136",Vincennes,IN,47591,Dianna Strauser,(812)882-1783,N/A,38.6970736,-87.48049853
140,Sane Ready Hospitals,St. Elizabeth Edgewood,1 Medical Village Drive,Edgewood,KY,41017,Garren Colvin,859-301-2000,"St. Elizabeth Medical Center, Inc. ",39.00798015,-84.56477548
141,Long Term Care,Villages At Historic Silvercrest The,1 Silvercrest Drive,New Albany,IN,47150,Stephanie Miller,(812)542-6720,N/A,38.29494815,-85.8470873
142,Long Term Care,Aspen Trace Health & Living Community,3154 South State Road 135,Greenwood,IN,46143,Emily Carnes,(317)535-3344,N/A,39.71697875,-86.22540142
143,Long Term Care,Autumn Woods Health Campus,2911 Green Valley Rd,New Albany,IN,47150,Brandy D'Angelo,(812)941-9893,N/A,38.32062715,-85.83836084
144,Long Term Care,Beech Grove Meadows,2002 Albany St,Beech Grove,IN,46107,Jeremiah Johnson,(317)783-2911,N/A,39.7239784,-86.10528997
145,Long Term Care,Fair Oaks Health And Rehabilitation,1 Sparks Avenue,Jamestown,KY,42629,Chelsea Conner,(270)343-2101,"Fair Oaks Health Systems, Llc",36.99359171,-85.0687112
146,Long Term Care,Bell Trace Health And Living Center,725 Bell Trace Circle,Bloomington,IN,47408,Kelsey Haislip,(812)323-2858,N/A,39.1689974,-86.4888937
147,Long Term Care,"Belmont Health & Rehabilitation, The",540 Belmont Drive,Columbus,IN,47201,Tyler Reed,(812)669-5500,N/A,39.1185962,-86.5294163
148,Nursing Home,Fair Oaks Health And Rehabilitation,1 Sparks Avenue,Jamestown,KY,42629,,(270)343-2101,N/A,36.99359171,-85.0687112
149,Long Term Care,Bertha D Garten Ketcham Memorial Center,601 E Race St,Odon,IN,47562,Matthew Millikan,(812)636-4920,N/A,38.841122,-86.982758
150,Long Term Care,Bethany Village,3518 S Shelby St,Indianapolis,IN,46227,Jennifer Voss,(317)783-4042,N/A,39.7148005,-86.1405914
151,Physician Office Laboratories,A A Seales Psc,10 Youell Street,Florence,KY,41042,,(859) 525-6730,N/A,39.00156117,-84.62641183
152,Physician Office Laboratories,"Womankind Midwifery, Pllc",10 Youell Street,Florence,KY,41042,,(859) 512-7472,N/A,39.00156117,-84.62641183
153,Long Term Care,Brickyard Healthcare - Bloomington Care Center,155 E Burks Dr,Bloomington,IN,47401,Zachary Wilson,(812)332-4437,N/A,39.16660165,-86.61138578
154,Long Term Care,Brickyard Healthcare - Churchman Care Center,2860 Churchman Ave,Indianapolis,IN,46203,Thomas Johnson,(317)787-3451,N/A,39.73014665,-86.11212582
155,Long Term Care,Brickyard Healthcare - Lincoln Hills Care Center,402 19Th Street,Tell City,IN,47586,Julie Pennington,(812)547-3427,N/A,37.95558116,-86.75529701
156,Long Term Care,Brickyard Healthcare - Petersburg Care Center,309 W Pike Ave,Petersburg,IN,47567,William Carr,(812)354-8833,N/A,38.4508822,-87.2955687
157,Long Term Care,Brickyard Healthcare - Twelfth Street Care Center,811 E 12Th Street,Mishawaka,IN,46544,Jennifer Neely,(574)259-1917,N/A,39.16874765,-86.52403294
158,Long Term Care,Brickyard Healthcare - Woodlands Care Center,4088 Frame Rd,Newburgh,IN,47630,Maribeth Donaldson,(812)853-9567,N/A,37.9750973,-87.41271216
159,Long Term Care,Carmel Manor,100 Carmel Manor Road,Fort Thomas,KY,41075,Jena Quinn-Sexton,(859)781-5111,Carmel Manor,39.06399135,-84.44038438
160,Nursing Home,Carmel Manor,100 Carmel Manor Road,Fort Thomas,KY,41075,,(859)781-5111,N/A,39.06399135,-84.44038438
161,Assisted Living Communities,Walkers Trail Senior Living,100 Davco Drive,Danville,KY,40422,,(859) 236-5383,N/A,37.6408143,-84.8040558
162,Physician Office Laboratories,Lexington Clinic Ct  Lce,100 N Eagle Creek Dr,Lexington,KY,40509,,(859) 258-4076,N/A,37.99968866,-84.44108801
163,Physician Office Laboratories,Lexington Clinic East-Family Practice,100 N Eagle Creek Dr,Lexington,KY,40509,,(606) 258-4000,N/A,37.99968866,-84.44108801
164,Physician Office Laboratories,Lexington Clinic East-Internal Medicine,100 N Eagle Creek Dr,Lexington,KY,40509,,(859) 258-5353,N/A,37.99968866,-84.44108801
165,Assisted Living Communities,Cedarhurst Of East Louisville,100 Shelby Station Drive,Louisville,KY,40245,Michael Lafountain Jr,(502) 632-5500,N/A,38.23924362,-85.49028007
166,Long Term Care,Nicholasville Nursing & Rehabilitation,100 Sparks Avenue,Nicholasville,KY,40356,Tracy  Boulware,(859)885-4171,"Nicholasville Nursing And Rehabilitation, Llc",37.88615711,-84.56551944
167,Long Term Care,Chalet Rehabilitation And Healthcare Center,4851 Tincher Rd,Indianapolis,IN,46221,Tanequa Footman,(317)856-4851,N/A,39.6936252,-86.25026108
168,Long Term Care,Radcliff Veterans Center,100 Veterans Drive,Radcliff,KY,40160,Lanetta Popplewell,(270) 352-6700,Ky Department Of Veterans Affairs,37.87008776,-85.9668726
169,Long Term Care,Thomson-Hood Veterans Center,100 Veterans Drive,Wilmore,KY,40390,Joni Gosser,(859)858-2814,Commonwealth Of Kentucky,37.87525674,-84.64718122
170,Long Term Care,Clark Rehabilitation And Skilled Nursing Center,517 N Little League Blvd,Clarksville,IN,47129,Holly Northam,(812)282-8406,N/A,38.3051111,-85.757789
171,Long Term Care,Clarksville Senior Living Llc,400 Hunter Station Road,Sellersburg,IN,47172,Kathy Jones,(812)748-5258,N/A,38.3825447,-85.7718947
172,Long Term Care,Colonial Nursing Home,119 N Indiana Ave,Crown Point,IN,46307,Jennifer Short,(219)663-2532,N/A,39.16576135,-86.52606681
173,Long Term Care,Compass Park,800 Freemason Parkway,Franklin,IN,46131,William Pierce,(317)736-6141,N/A,39.46996044,-86.04600875
174,Long Term Care,Core Of Dale,510 W Medcalf Road,Dale,IN,47523,Charles Brazzell,(812)937-7073,N/A,38.16906715,-86.98942515
175,Long Term Care,Cypress Grove Rehabilitation Center,4255 Medwell Dr,Newburgh,IN,47630,Brandon Burns,(812)853-2993,N/A,37.9725905,-87.43076534
176,Assisted Living Communities,The Meadows At Windsor Gardens,100 Windsor Path,Georgetown,KY,40324,Lisa Shine,(502) 570-0540,N/A,38.18422295,-84.55702429
177,Assisted Living Communities,Windsor Gardens Of Georgetown,100 Windsor Path,Georgetown,KY,40324,Dutin Downs,(502) 570-0540,N/A,38.18422295,-84.55702429
178,Long Term Care,Envive Of Lawrenceburg,403 Bielby Rd,Lawrenceburg,IN,47025,Keith Mckee,(812)537-1132,N/A,39.1162972,-84.8837762
179,Long Term Care,Envive Of Muncie,7524 E Jackson Street,Muncie,IN,47302,Roberta Scott,(765)747-7820,N/A,39.4486608,-85.1941296
180,Long Term Care,"Waters Of Georgetown, The",1002 Sister Barbara Way,Georgetown,IN,47122,Meredith Eder,(812)940-5100,N/A,38.29743273,-85.95676826
181,Long Term Care,Fairway Village,2630 S Keystone Ave,Indianapolis,IN,46203,Patrick Ngene,(317)787-8951,N/A,39.729844,-86.12122298
182,Long Term Care,Forest Creek Village,525 E Thompson Rd,Indianapolis,IN,46227,Neha Patel,(317)787-8253,N/A,39.69264085,-86.1468884
183,Long Term Care,Hardinsburg Nursing And Rehabilitation Center,101 Fairgrounds Road,Hardinsburg,KY,40143,Joseph Vance,(270)756-2159,"Hardinsburg Health Center, Llc",37.7683583,-86.44194323
184,Long Term Care,Franklin Meadows,1285 W Jefferson St,Franklin,IN,46131,Jason Kennedy,(317)736-9113,N/A,39.4803398,-86.059996
185,Long Term Care,Freelandville Community Home,310 W Carlisle Street,Freelandville,IN,47535,Shannon Graves,(812)328-2134,N/A,38.8671876,-87.30867866
186,Assisted Living Communities,The Home Place At Midway,101 Sexton Way,Midway,KY,40347,Tonya Cox,(859) 846-4663,N/A,38.1402227,-84.6783212
187,Long Term Care,Grand Valley Health & Rehab,621 Grand Valley Boulevard,Martinsville,IN,46151,Chelsea Frederick,(765)342-7114,N/A,39.416541112683255,-86.40700258
188,Long Term Care,Green Valley Care Center,3118 Green Valley Rd,New Albany,IN,47150,Gregory Dattilo,(812)945-2341,N/A,38.3247817,-85.83444541
189,Long Term Care,Greenfield Healthcare Center,200 Green Meadows Dr,Greenfield,IN,46140,Andrew Clark,(317)462-3311,N/A,39.63263645,-86.11988842
190,Long Term Care,Greenwood Health And Living Community,937 Fry Rd,Greenwood,IN,46142,Dorian Mihay,(317)881-3535,N/A,39.628088,-86.128999
191,Long Term Care,Greenwood Healthcare Center,377 Westridge Blvd,Greenwood,IN,46142,Linda Turner,(317)888-4948,N/A,39.6182214,-86.14491105
192,Long Term Care,Greenwood Meadows,1200 N State Road 135,Greenwood,IN,46142,Laura Dyer,(317)300-2200,N/A,39.63394376,-86.15847328
193,Long Term Care,Hawthorne Healthcare Center,7465 Madison Ave,Indianapolis,IN,46227,Jakob Barbour,(317)788-3000,N/A,39.65832665,-86.12377477
194,Private Duty Nursing,"Nurses Registry, Inc",101 Venture Court,Lexington,KY,40511,Vicki House,(859)259-9687,"Nr, Inc.",38.08261149,-84.54862292
195,Critical Access Hospital,Breckinridge Memorial Hospital,1011 Old Highway 60,Hardinsburg,KY,40143,Angela Portman,(270) 756-7000,"Breckinridge Health, Inc.",37.76680334,-86.44160522
196,Long Term Care,Breckinridge Memorial Nursing Facility,1011 Old Highway 60,Hardinsburg,KY,40143,Angela Portman,(270)756-7000,"Breckinridge Health, Inc.",37.76680334,-86.44160522
197,Long Term Care,Heritage House Rehabilitation & Health Care Center,281 S County Road 200 East,Connersville,IN,47331,Stacey Ware,(765)825-2148,N/A,39.6402008,-85.1371639
198,Nursing Home,Breckinridge Memorial Nursing Facility,1011 Old Highway 60,Hardinsburg,KY,40143,,(270)756-6578,N/A,37.76680334,-86.44160522
199,Long Term Care,Richwood Nursing & Rehab,1012 Richwood Way,La Grange,KY,40031,Blair Einfeldt,(502)222-3186,"Richwoodidence Opco, Llc ",38.39378204,-85.37064081
200,Long Term Care,Hickory Creek At Franklin,580 Lemley Street,Franklin,IN,46131,Tracie Oldham,(317)736-8214,N/A,39.49321025,-86.06459505
201,Long Term Care,Hickory Creek At Greensburg,1620 N Lincoln St,Greensburg,IN,47240,Brooke Thies,(812)663-7503,N/A,38.11903385,-86.99666949
202,Long Term Care,Hickory Creek At Madison,1945 Cragmont St,Madison,IN,47250,Markietta Burns,(812)273-4696,N/A,38.76434988680276,-85.39663219
203,Long Term Care,Hillcrest Village,203 Sparks Ave,Jeffersonville,IN,47130,Mark Bowman,(812)283-7918,N/A,38.28184244006377,-85.74925254
204,Long Term Care,Homeview Center Of Franklin,651 South State Street,Franklin,IN,46131,Mark Gavorski,(317)736-6414,N/A,38.2472403,-85.75804
205,Long Term Care,Hutsonwood At Brazil,501 S Murphy Ave,Brazil,IN,47834,Manoj Berry,(812)446-2636,N/A,38.277682,-85.73759759
206,Long Term Care,Indian Creek Healthcare Center,240 Beechmont Dr,Corydon,IN,47112,Rodney Jackson,(812)738-8127,N/A,38.23348795,-86.13258875
207,Long Term Care,Lake Pointe Village,545 W Moonglo Rd,Scottsburg,IN,47170,Richey Barton,(812)752-3499,N/A,38.707109141867264,-85.81552616
208,Long Term Care,Lincoln Hills Of New Albany,326 Country Club Drive,New Albany,IN,47150,Kimberly Povinelli,(812)948-1311,N/A,38.3034137,-85.82982114
209,Long Term Care,Cedarhurst Of Newburgh,10144 Warrick Trail,Newburgh,IN,47630,Kaylee Binkley,(812)518-0076,N/A,37.9812594,-87.4355775
210,Long Term Care,Majestic Care Of Bedford,2111 Norton Ln,Bedford,IN,47421,Scott Swaby,(812)277-3730,N/A,38.85431925,-86.50213532
211,Long Term Care,Majestic Care Of Bloomington,1100 S Curry Pk,Bloomington,IN,47403,Warren Mccreery,(812)339-1657,N/A,39.1493693,-86.5825563
212,Long Term Care,Majestic Care Of Newburgh,5233 Rosebud Lane,Newburgh,IN,47630,Brandi Thompson,(812)473-4761,N/A,37.9657287,-87.450144
213,Long Term Care,Majestic Care Of Southport,8549 S Madison Ave,Indianapolis,IN,46227,Brocton Bennett,(317)881-9164,N/A,39.64238015,-86.11775729
214,Long Term Care,Mccormick's Creek Rehabilitation And Healthcare,210 State Hwy 43,Spencer,IN,47460,Sara Mitchell,(812)829-3444,N/A,39.2785499,-86.7219626
215,Long Term Care,Meadow View Health And Rehabilitation,900 Anson St,Salem,IN,47167,Krista Smith,(812)883-4681,N/A,38.61441075,-86.09475226
216,Long Term Care,Miller's Merry Manor,1630 S County Farm Rd,Warsaw,IN,46580,Hillary Corbitt,(574)267-8196,N/A,39.450405,-86.5730759
217,Long Term Care,Miller's Merry Manor,7440 N County Road 825 E,Hope,IN,47246,Alexa Robbins,(812)546-4416,N/A,39.27704244,-85.75726556
218,Long Term Care,Miller's Merry Manor,259 W Harrison St,Mooresville,IN,46158,Natalie Peterson,(317)831-6272,N/A,39.2608882,-84.8207849
219,Long Term Care,Mitchell Manor,24 Teke Burton Dr,Mitchell,IN,47446,Katherine Hignite Owens,(812)849-2221,N/A,38.74116977925623,-86.49239059
220,Long Term Care,Morgantown Woods Of Journey,140 W Washington St,Morgantown,IN,46160,Phil Ford,(812)597-4418,N/A,39.37173835,-86.2624944
221,Long Term Care,Chestnut Ridge Health & Rehabilitation,1015 West Magazine Street,Louisville,KY,40203,Sherita Autrey,(502)815-6460,Chestnut Snf Operations Llc,38.24882215,-85.76833357
222,Long Term Care,Newburgh Health Care,10466 Pollack Ave,Newburgh,IN,47630,Ally Lopp,(812)853-2931,N/A,37.94766724566912,-87.43203432
223,Long Term Care,Signature Healthcare Of Georgetown,102 Pocahontas Trail ,Georgetown,KY,40324,Danny Gross,(502)863-3696,"Lp Georgetown, Llc",38.19662008,-84.56200263
224,Long Term Care,Owen Valley Rehabilitation And Healthcare Center,920 W Highway 46,Spencer,IN,47460,Edward Hughes,(812)829-2331,N/A,39.2886563,-86.7866467
225,Long Term Care,Paoli Health And Living Community,559 W Longest St,Paoli,IN,47454,Lyndie Mcgraw,(812)723-2595,N/A,38.567170169353794,-86.47451629
226,Assisted Living Communities,Traditions At Beaumont,10210 Long Home Rd,Fern Creek,KY,40291,Rebeka Nicholas,(502) 231-4522,N/A,38.12192787,-85.57552885
227,Long Term Care,Poplar Care Strategies,313 Poplar St,Loogootee,IN,47553,Devon Cram,(812)295-4433,N/A,38.670171832794274,-86.91197094
228,Long Term Care,Rensselaer Care Center,1309 E Grace St,Rensselaer,IN,47978,Jillian Kutemeier,(219)866-4181,N/A,39.1725713,-86.51841389
229,Long Term Care,Richland Bean Blossom Health Care Center,5911 State Road 46,Ellettsville,IN,47429,Tonia Bough,(812)876-6400,N/A,39.22382075,-86.61218268
230,Assisted Living Communities,Traditions At Beaumont,10210 Long Home Rd,Fern Creek,KY,40291,,(502) 231-4522,N/A,38.12192787,-85.57552885
231,Long Term Care,River Bend Nursing And Rehabilitation,3400 Stocker Dr,Evansville,IN,47720,Eric Ross,(812)424-8100,N/A,38.09541895,-87.50648958
232,Long Term Care,Crown Pointe Senior Living Community,1034 Crown Pointe Blvd,Greensburg,IN,47240,Jamie Smith,(812)662-8888,N/A,39.32430123,-85.46851535
233,Residential Care,Crown Pointe Senior Living Community,1034 Crown Pointe Blvd,Greensburg,IN,47240,Jamie Smith,(812)662-8888,N/A,39.32430123,-85.46851535
234,Long Term Care,Bradford Square Nursing And Rehabilitation  Center,1040 Us 127 South,Frankfort,KY,40601,Christopher Macgregor,(502)875-5600,Bradford Square Health Center Llc,38.17933196,-84.89489695
235,Nursing Home,Bradford Square Nursing And Rehabilitation Center,1040 Us 127 South,Frankfort           ,KY,40601,,(502)875-5600,N/A,38.17933196,-84.89489695
236,Long Term Care,Riverview Village,586 Eastern Blvd,Clarksville,IN,47129,Tina Martin,(812)282-6663,N/A,38.2981188,-85.7607922
237,Alcohol And Drug Prevention,"Seven Counties Services, Inc","10401 Linn Station Road, Suite 100",Louisville,KY,40223,Susan Rittenhouse,(502) 589-8600,"Seven Counties Services, Inc.",38.22458287,-85.56374753
238,Long Term Care,Rosegate Village,7510 Rosegate Dr,Indianapolis,IN,46237,Tara Mcglothlin,(317)889-9300,N/A,39.658553350000005,-86.08104027
239,Long Term Care,Salem Crossing,200 Connie Ave,Salem,IN,47167,Holly Thompson,(812)883-1877,N/A,38.614953,-86.11047083
240,Community Mental Health Centers- Lic Only,"Seven Counties Services, Inc","10401 Linn Station Road, Suite 100",Louisville,KY,40223,Susan Rittenhouse,(502)589-8600,"Seven Counties Services, Inc.",38.22458287,-85.56374753
241,Long Term Care,Sellersburg Healthcare Center,7823 Old State Road 60,Sellersburg,IN,47172,Maria Diaz,(812)246-4272,N/A,38.37970340096348,-85.76434329
242,Long Term Care,The Terrace Nursing And Rehabilitation Center,1043 Brooklyn Boulevard,Berea,KY,40403,Chadwich Hill,(859)228-0551,"Berea Operations, Llc",37.59271062,-84.29629652
243,Long Term Care,Signature Healthcare Of Terre Haute,3500 Maple Ave,Terre Haute,IN,47804,Cathy Macke,(812)238-1555,N/A,39.2448564,-86.5798856
244,Long Term Care,Silver Memories Health Care,6996 South  Us421,Versailles,IN,47042,Sharon Woods,(812)689-6222,N/A,38.97218045,-85.3139053
245,Nursing Home,The Terrace Nursing And Rehabilitation Center,1043 Brooklyn Boulevard,Berea,KY,40403,,(859)228-0551,N/A,37.59271062,-84.29629652
246,Long Term Care,Southpointe Healthcare Center,4904 War Admiral Drive,Indianapolis,IN,46237,Sara Kelley,(317)885-3333,N/A,39.6410521,-86.08582421
247,Long Term Care,Springs Valley Meadows,457 S Sr 145,French Lick,IN,47432,Riley Widdifield,(812)936-9991,N/A,38.5499152,-86.6110761
248,Long Term Care,Stanford Crossing,105 Harmon Heights,Stanford,KY,40484,Karen Biggs,(606)365-2141,"Stanford Crossing, Llc",37.53786414,-84.67125306
249,Nursing Home,Stanford Crossing,105 Harmon Heights,Stanford,KY,40484,,(606)365-2141,N/A,37.53786414,-84.67125306
250,Long Term Care,Grand Haven Nursing Home,105 Rodgers Park,Cynthiana,KY,41031,Ashlee Gaunce,(859)234-2050,"Martin'S Rest Home, Inc.",38.39374677,-84.28309867
251,Long Term Care,Summit Health And Living,701 S Main St,Summitville,IN,46070,Anastasia Key,(765)203-2671,N/A,39.18100645,-86.52645547
252,Long Term Care,Swiss Villa Nursing And Rehabilitation,1023 W Main St,Vevay,IN,47043,Kyle Stout,(812)427-2803,N/A,39.72136325,-86.09430694
253,Long Term Care,Sycamore Care Strategies,12802 East Us Hwy 50,Loogootee,IN,47553,Brandi Gladish,(812)295-2101,N/A,38.65426244219608,-87.0491246
254,Nursing Home,Harrison Nursing And Rehabilitation Center,105 Rodgers Park,Cynthiana           ,KY,41031,,(859)234-2050,N/A,38.39374677,-84.28309867
255,Long Term Care,"The Village Of Lebanon Ii, Llc",105 Village Way,Lebanon,KY,40033,Farrah Mattingly,(270)692-9000,"The Village Of Lebanon, Llc",37.561522,-85.26896075
256,Long Term Care,Timbers Of Jasper The,2909 Howard Dr,Jasper,IN,47546,Beau Kellams,(812)482-6161,N/A,38.4159208,-86.941986
257,Long Term Care,Todd-Dickey Nursing And Rehabilitation,712 W 2Nd St,Leavenworth,IN,47137,Wendy Broughton,(812)739-2292,N/A,39.1611945,-86.52508675
258,Long Term Care,"The Village Of Lebanon Ii, Llc",105 Village Way,Lebanon,KY,40033,Farrah Mattingly,(270)692-9000,"The Village Of Lebanon Ii, Llc",37.561522,-85.26896075
259,Long Term Care,University Heights Health And Living Community,1380 E County Line Rd S,Indianapolis,IN,46227,Benjy Grzych,(317)885-7050,N/A,39.6458567,-86.18312907
260,Nursing Home,"The Village Of Lebanon Ii, Llc",105 Village Way,Lebanon,KY,40033,,(270)692-9000,N/A,37.561522,-85.26896075
261,Physician Office Laboratories,Concentra Primary Care - Dove Run,1055 Dove Run Road,Lexington,KY,40502,,(859) 269-4668,N/A,37.99647496,-84.4938099
262,Physician Office Laboratories,Concentra Urgent Care - Dove Run,1055 Dove Run Road,Lexington,KY,40502,Matthew Nelson,(859) 269-4668,N/A,37.99647496,-84.4938099
263,Long Term Care,Worthington Place,10799 Alliance Dr,Camby,IN,46113,Sheryl Morning,(317)856-6224,N/A,39.63766553124861,-86.33089723
264,Outpatient Physical Therapy,"Legacy Healthcare Services, Inc",10799 Alliance Dr,Camby,IN,46113,,(317) 821-0444,N/A,39.63766553124861,-86.33089723
265,Residential Care,Worthington Place,10799 Alliance Dr,Camby,IN,46113,Sheryl Morning,(317)856-6224,N/A,39.63766553124861,-86.33089723
266,Long Term Care,"Nhc Healthcare, Glasgow",109  Homewood Blvd.,Glasgow,KY,42141,Denise Billingsley,(270)651-6126,"Nhc Healthcare/Glasgow, Llc",37.01682525,-85.90489192
267,Long Term Care,Washington Healthcare Center,8201 W Washington St,Indianapolis,IN,46231,Keira Gilmore,(317)244-6848,N/A,38.5612578,-86.1179768
268,Long Term Care,"Waters Of Batesville, The",958 E Hwy 46,Batesville,IN,47006,Jalena Ball,(812)934-2436,N/A,39.300601,-85.2111736
269,Long Term Care,"Waters Of Clifty Falls, The",950 Cross Ave,Madison,IN,47250,Melinda Alcorn,(812)273-4640,N/A,38.76462750708045,-85.40736659
270,Long Term Care,"Waters Of Dillsboro-Ross Manor, The",12803 Lenover St,Dillsboro,IN,47018,Vicki Mcguire,(812)432-5226,N/A,39.01877803976409,-85.05504257
271,Nursing Home,"Nhc Healthcare, Glasgow",109  Homewood Blvd.,Glasgow,KY,42141,,(270)651-6126,N/A,37.01682525,-85.90489192
272,Long Term Care,"Waters Of Huntingburg, The",1712 Leland Dr,Huntingburg,IN,47542,Rebecca Lucas,(812)683-4090,N/A,38.3121466,-86.9603848
273,Long Term Care,"Waters Of Indianapolis, The",3895 S Keystone Ave,Indianapolis,IN,46227,Alicia Harris,(317)787-5364,N/A,39.7099643,-86.11945735
274,Long Term Care,"Waters Of Scottsburg, The",1350 N Todd Dr,Scottsburg,IN,47170,Ashley Bowling,(812)752-5663,N/A,38.70163078672375,-85.78615084
275,Long Term Care,"Waters Of Sullivan Nursing Facility, The",505 W Wolfe St,Sullivan,IN,47882,Sally Robertson,(812)268-6361,N/A,39.268655,-86.8594521
276,Long Term Care,Wedgewood Healthcare Center,101 Potters Ln,Clarksville,IN,47129,Alicia Wells,(812)948-0808,N/A,38.3272265,-85.7843218
277,Critical Access Hospital,Ephraim Mcdowell Fort Logan Hospital,110 Metker Trail,Stanford,KY,40484,Lynne Lynn,(606) 365-4788,"Emhfl, Inc.",37.54352134,-84.65354451
278,Hospital,Ephraim Mcdowell Fort Logan Hospital,110 Metker Trail,Stanford,KY,40484,Daniel Mckay,606-365-4788,"Emhfl, Inc.",37.54352134,-84.65354451
279,Long Term Care,Westview Nursing And Rehabilitation Center,1510 Clinic Dr,Bedford,IN,47421,Randy Padgett,(812)279-4494,N/A,38.86190725020221,-86.51437047
280,Long Term Care,Home Of The Innocents,1100 East Market Street,Louisville,KY,40206,April Raddish,(502)596-1000,"The Home Of The Innocents, Inc.",38.25242021,-85.73141702
281,Long Term Care,Willow Crossing Health & Rehabilitation Center,3550 Central Ave,Columbus,IN,47203,Alisha Miller,(812)379-9669,N/A,39.20194880807954,-85.90590501
282,Long Term Care,Willows Of Greensburg,410 Park Rd,Greensburg,IN,47240,Kelsey Meal,(812)663-7543,N/A,39.1513673,-86.52856805
283,Behavioral Health Services Org.,Home Of The Innocents,1100 East Market Street,Louisville,KY,40206,Jennifer Mullins,(502)596-1000,"The Home Of The Innocents, Inc.",38.25242021,-85.73141702
284,Nursing Home,Home Of The Innocents,1100 East Market Street,Louisville          ,KY,40206,,(502)596-1000,N/A,38.25242021,-85.73141702
285,Alcohol And Drug Prevention,Rivervalley Behavioral Health,1100 Walnut Street,Owensboro,KY,42301,Wanda Figueroa-Peralta,(270) 689-6500,"Green River Regional Mh/Mr Board, Inc.",37.7652455,-87.1174337
286,Community Mental Health Centers- Lic Only,Rivervalley Behavioral Health,1100 Walnut Street,Owensboro,KY,42301,Wanda Figueroa,(270)689-6500,"Rivervalley Behavioral Health, Inc",37.7652455,-87.1174337
287,Psychiatric Residential Treatment Facilities,River Valley Behavioral Health I,1100 Walnut Street,Owensboro,KY,42301,Wanda Figueroa Peralta,(270)689-6624,"Green River Regional Mh/Mr Board, Inc.",37.7652455,-87.1174337
288,Psychiatric Residential Treatment Facilities,River Valley Behavioral Health Ii,1100 Walnut Street,Owensboro,KY,42301,Wanda Figueroa Peralta,(270)689-6624,"Green River Regional Mh/Mr Board, Inc.",37.7652455,-87.1174337
289,Long Term Care,Lyndon Crossing,1101 Lyndon Lane,Louisville,KY,40222,Daniel  Wylie,(502)425-0331,"Lyndon Crossing, Llc",38.26640551,-85.61008585
290,Nursing Home,Lyndon Crossing,1101 Lyndon Lane,Louisville,KY,40222,,(502)425-0331,N/A,38.26640551,-85.61008585
291,Long Term Care,Elizabethtown Nursing And Rehabilitation Center,1101 Woodland Drive,Elizabethtown,KY,42701,Cassie Allen,(270)765-6106,"Elizabethtown Opco, Llc",37.71238715,-85.87946116
292,Nursing Home,Elizabethtown Nursing And Rehabilitation Center,1101 Woodland Drive,Elizabethtown,KY,42701,,(270)765-6106,N/A,37.71238715,-85.87946116
293,Assisted Living Communities,The Ashton On Dorsey,1105 Dorsey Lane,Louisville,KY,40223,Miles Burkholder,(502) 677-3225,N/A,38.26568067,-85.56426035
294,Assisted Living Communities,The Ashton On Dorsey,1105 Dorsey Lane,Louisville,KY,40223,,(502) 966-7077,N/A,38.26568067,-85.56426035
295,Long Term Care,Brookside Village Inc,1111 Church Ave,Jasper,IN,47546,Melissa Joffee,(812)634-7750,N/A,38.375968337225125,-86.91357659
296,Non Freestanding Residential Care,Brookside Village Inc,1111 Church Ave,Jasper,IN,47546,Melissa Joffee,(812)634-7750,N/A,38.375968337225125,-86.91357659
297,Long Term Care,Dover Nursing & Rehabilitation Center,112 Dover Drive,Georgetown,KY,40324,Shannon Baker,(502)863-9529,"Dover Manor Operations, Llc",38.2126094,-84.53189846
298,Nursing Home,Dover Nursing & Rehabilitation Center,112 Dover Drive,Georgetown,KY,40324,,(502)863-9529,N/A,38.2126094,-84.53189846
299,Long Term Care,Signature Healthcare Of South Louisville,1120 Cristland Road,Louisville,KY,40214,Joe Norris,(502)367-0104,"Lp Louisville South, Llc",38.14252053,-85.78817701
300,Nursing Home,Signature Healthcare Of South Louisville,1120 Cristland Road,Louisville,KY,40214,,(502)367-0104,N/A,38.14252053,-85.78817701
301,Long Term Care,Oakwood Health Campus,1143 23Rd St,Tell City,IN,47586,Mary Blocker,(812)547-2333,N/A,37.9554726,-86.7501095
302,Non Freestanding Residential Care,Oakwood Health Campus,1143 23Rd St,Tell City,IN,47586,Mary Blocker,(812)547-2333,N/A,37.94967519248875,-86.75008181
303,Non Freestanding Residential Care,Otterbein Franklin Seniorlife Comm Res & Com Care,1070 W Jefferson St,Franklin,IN,46131,Shannon Logan,(317)736-7185,N/A,39.479782,-86.0723797
304,Assisted Living Communities,Ashton Grove Senior Living,115 Ashton Grove Path,Georgetown,KY,40324,Kristi Peters,(502) 570-9222,N/A,38.1812063,-84.5661152
305,Assisted Living Communities,Ashton Grove Senior Living,115 Ashton Grove Path,Georgetown,KY,40324,Kristi Peters,(502) 570-9222,N/A,38.1812063,-84.5661152
306,Long Term Care,Grand Valley Gardens Assisted Living Facility,1151 S Hubert Circle West,Martinsville,IN,46151,Michelle Heacock,(765)558-8200,N/A,39.53832688547961,-86.47580275
307,Residential Care,Grand Valley Gardens Assisted Living Facility,1151 S Hubert Circle West,Martinsville,IN,46151,Michelle Heacock,(765)558-8200,N/A,39.53832688547961,-86.47580275
308,Behavioral Health Services Org.,"Brightview, Llc",1154 A Lexington Road,Georgetown,KY,40324,Chad Smith,(812)701-3259,"Brightview, Llc",38.1849113,-84.56181294
309,Physician Office Laboratories,"Brightview, Llc",1154 A Lexington Road,Georgetown,KY,40324,,(833) 510-4357,N/A,38.1849113,-84.56181294
310,Non Freestanding Residential Care,"Springs Of Mooresville, The",302 North Johnson Road,Mooresville,IN,46158,Natalie Padgett,(317)831-9033,N/A,39.6172926,-86.18878054
311,Long Term Care,Eastway Health & Rehabilitation,1155 Eastern Parkway,Louisville,KY,40217,Christopher Kellogg,(502)636-5241,Eastway Snf Operations Llc,38.22549295,-85.72737528
312,Nursing Home,Eastway Health & Rehabilitation,1155 Eastern Parkway,Louisville,KY,40217,,(502)636-5241,N/A,38.22549295,-85.72737528
313,Long Term Care,Frankfort Trails,117 Old Soldiers Lane,Frankfort,KY,40601,Daniel  Wylie,(502)875-7272,"Frankfort Trails, Llc",38.18044299,-84.89619196
314,Nursing Home,Frankfort Trails,117 Old Soldiers Lane,Frankfort           ,KY,40601,,(502)875-7272,N/A,38.18044299,-84.89619196
315,Assisted Living Communities,Sanders Ridge Health Campus,119 East Sanders Lane,Mount Washington,KY,40047,Todd Frasher,(502) 251-3821,N/A,38.05982472,-85.50821124
316,Assisted Living Communities,Sanders Ridge Health Campus,119 East Sanders Lane,Mount Washington,KY,40047,,(859) 000-8901,N/A,38.05982472,-85.50821124
317,Long Term Care,Sanders Ridge Health Campus,119 East Sanders Lane,Mount Washington,KY,40047,Todd Frasher,(502)251-3821,"Trilogy Healthcare Of Bullitt, Llc",38.05982472,-85.50821124
318,Nursing Home,Sanders Ridge Health Campus,119 East Sanders Lane,Mount Washington,KY,40047,,(502)251-3821,N/A,38.05982472,-85.50821124
319,Long Term Care,River Terrace Health Campus,120 Presbyterian Ave,Madison,IN,47250,Rhonda Gibson,(812)265-0080,N/A,38.73990614676659,-85.38981292
320,Non Freestanding Residential Care,River Terrace Health Campus,120 Presbyterian Ave,Madison,IN,47250,Rhonda Gibson,(812)265-0080,N/A,38.73990614676659,-85.38981292
321,Outpatient Physical Therapy,"Bloomington Advanced Surgery Center, Llc",445 S. Landmark Avenue,Bloomington,IN,47403,,,N/A,39.1255543,-86.537084
322,Outpatient Physical Therapy,Advanced Rehabilitation Inc,1020 C 11Th St,Tell City,IN,47586,Deborah Reed,(812)547-7770,N/A,37.9556887,-86.7656721
323,Outpatient Physical Therapy,Advanced Rehabilitation Inc,"225 W 41St Street, Suite C",Jasper,IN,47546,,(812) 482-7755,N/A,38.427667,-86.9386779
324,Outpatient Physical Therapy,Advanced Rehabilitation Inc,"5 E Christmas Blvd, Ste D",Santa Claus,IN,47579,,,N/A,38.1060086,-86.91643
325,Outpatient Physical Therapy,Pr Fresenius Kidney Care,5506 Highway 62,Jeffersonville,IN,47130,,(262)901-0505,N/A,38.3576848,-85.70114844
326,Outpatient Physical Therapy,Easter Seals Crossroads- South,3215 E Thompson Rd,Indianapolis,IN,46227,,(317) 782-8888,N/A,39.6609666,-86.11056927
327,Outpatient Physical Therapy,"Easter Seals Rehabilitation Center, Inc",3701 Bellemeade Avenue,Evansville,IN,47714,Kelly Schneider,(812)479-1411,N/A,37.96712759835001,-87.46130729
328,Outpatient Physical Therapy,Frazier So Indiana Ymca,4812 Hamburg Pike,Jeffersonville,IN,47130,Anne Kelly Kennedy,(812)282-4257,N/A,38.29647369985342,-85.7466673
329,Outpatient Physical Therapy,Hand Rehabilitation Center Of Indiana The,737 West Green Meadows Drive,Greenfield,IN,46140,Largo@Ihtsc.Com,(317) 875-9105,N/A,39.63263645,-86.11988842
330,Outpatient Physical Therapy,Hand Rehabilitation Center Of Indiana The,"8820 South Meridian St, Suite 235",Indianapolis,IN,46217,Nancy Cannon,(317) 396-2925,N/A,39.6380449,-86.15935234
331,Outpatient Physical Therapy,Hts Outpatient Therapy Services At Hobart,1420 St Mary Circle,Hobart,IN,46342,,(219)945-3196,N/A,39.7509848,-85.97042342
332,Outpatient Physical Therapy,Indiana Physical Therapy,"7855 S Emerson Ave, Suite W",Indianapolis,IN,46237,Ken Johnson,(317)889-5340,N/A,39.653025150000005,-86.08168086
333,Outpatient Physical Therapy,Indiana Physical Therapy,"7015 Kentucky Avenue, Suite 107",Camby,IN,46113,Zachary Huey,(317) 821-7101,N/A,39.6609959,-86.31020666
334,Outpatient Physical Therapy,Indiana Physical Therapy Inc,2904 Wal Mart Dr,Huntington,IN,46750,Andrew L Vogle,(260) 224-6686,N/A,39.65748,-86.11463747
335,Outpatient Physical Therapy,"Legacy Health Care Services, Inc",2770 S Adams St,Bloomington,IN,47403,,(812)323-4661,N/A,39.1370184,-86.5553562
336,Outpatient Physical Therapy,"Legacy Health Care Services, Inc",3008 Shawnee Drive,Bedford,IN,47421,,(812) 277-9727,N/A,38.84956213817752,-86.51369474
337,Outpatient Physical Therapy,Legacy Healthcare Services Inc,3211 East Moores Pike,Bloomington,IN,47401,,,N/A,39.1545658,-86.49254231
338,Long Term Care,Ripley Crossing,1200 Whitlatch Way,Milan,IN,47031,Trina Johnson,(812)654-2231,N/A,39.13413319628128,-85.13399267
339,Non Freestanding Residential Care,Ripley Crossing,1200 Whitlatch Way,Milan,IN,47031,Trina Johnson,(812)654-2231,N/A,39.13413319628128,-85.13399267
340,Outpatient Physical Therapy,Legacy Healthcare Services Inc,500 College Avenue,Terre Haute,IN,47802,,,N/A,39.1126865,-84.87632477
341,Outpatient Physical Therapy,"Legacy Healthcare Services, Inc",1435 Christian Blvd.,Franklin,IN,46131,Heidi Napier,(317)859-2195,N/A,39.5384848,-86.0832703
342,Hospital,Owensboro Health Regional Hospital,1201 Pleasant Valley Road,Owensboro,KY,42303,Mark Marsh ,270-417-2000,"Owensboro Health, Inc.",37.77305247,-87.06598905
343,Long Term Care,The Transitional Care Center Of Owensboro,1201 Pleasant Valley Road,Owensboro,KY,42303,Jeremy Crowder,(270)688-2000,"Owensboro Health, Inc.",37.77305247,-87.06598905
344,Outpatient Physical Therapy,"Legacy Healthcare Services, Inc",1473 E Mckay Rd #102,Shelbyville,IN,46176,Lora Alonzo,(317) 604-5920,N/A,39.50449033,-85.75588842
345,Nursing Home,The Transitional Care Center Of Owensboro,1201 Pleasant Valley Road,Owensboro,KY,42303,,(270)688-2000,N/A,37.77305247,-87.06598905
346,Outpatient Physical Therapy,"Legacy Healthcare Services, Inc",9800 Outer Lincoln Ave,Newburgh,IN,47630,,(812)518-9386,N/A,37.96964825,-87.3332678
347,Outpatient Physical Therapy,"Legacy Healthcare Services, Inc",5050 Lincoln Ave,Evansville,IN,47715,,,N/A,37.96937269052622,-87.46858296
348,Sane Ready Hospitals,Owensboro Health Regional Hospital,1201 Pleasant Valley Road,Owensboro,KY,42303,Mark Marsh ,270-417-2000,"Owensboro Health, Inc. ",37.77305247,-87.06598905
349,Long Term Care,Signature Healthcare Of Carrollton Rehab And Wellnes,1206 Eleventh Street,Carrollton,KY,41045,Alan Wade,(502)732-6683,"Lp Carrollton, Llc",38.66929939,-85.16814223
350,Outpatient Physical Therapy,New Horizons Physiclal Therapy Limited Partnership,2857 Charlestown Rd Ste 200,New Albany,IN,47150,Roy Woolbright,(812)948-2947,N/A,38.33057457,-85.79968506
351,Outpatient Physical Therapy,New Horizons Physiclal Therapy,2760 Jeffersonville Centre Way,Jeffersonville,IN,47130,,(812) 288-8835,N/A,38.277682,-85.73759759
352,Outpatient Physical Therapy,Progressive Physical Therapy Pc Greensburg,930 E Barachel Lane Suite 400,Greensburg,IN,47240,Belinda J Hays,(812) 663-5072,N/A,39.35141578,-85.474137
353,Outpatient Physical Therapy,Select Physical Therapy,1030 E  County Line Road,Indianapolis,IN,46227,Emily Wogtech,(317)887-1121,N/A,39.6358467,-86.1401449
354,Outpatient Physical Therapy,Physiotherapy Associates,10701 Alliance Drive Suite D,Camby,IN,46113,,(317) 821-3740,N/A,39.63766553124861,-86.33089723
355,Outpatient Physical Therapy,Select Physical Therapy,3075 Middle Road Ste B,Columbus,IN,47203,Katie Finke,(812)372-7023,N/A,39.221857150000005,-85.88659395
356,Outpatient Physical Therapy,Select Physical Therapy,1130 West Jefferson St Ste A,Franklin,IN,46131,Danielle Johnson,(317)736-0660,N/A,38.24945855,-85.77003551
357,Outpatient Physical Therapy,Select Physical Therapy,2675 Foxpointe Dr,Columbus,IN,47203,,(812) 378-2185,N/A,39.22531276,-85.87029095
358,Outpatient Physical Therapy,Select Rehabilitaton Llc,2564 Fox Pointe Dr,Columbus,IN,47203,,(812)372-0950,N/A,39.22482075,-85.86783459
359,Nursing Home,Signature Healthcare Of Carrollton Rehab & Wellness Center,1206 Eleventh Street,Carrollton,KY,41045,,(502)732-6683,N/A,38.66929939,-85.16814223
360,Hospital,Harrison Memorial Hospital,1210 Kentucky Highway 36 East,Cynthiana,KY,41031,Dr. Kathy Tussey,859-234-2300,Harrison Memorial Hospital Inc,38.40360016,-84.31452813
361,Personal Care Service Agency,4 U Personal Care Llc,3406 Blackforest Lane,Indianapolis,IN,46239,Shanjae Gilbert,(317)383-6048,N/A,39.7192415,-86.02080288
362,Personal Care Service Agency,831 Home Care Llc,"5251 S East Street, Ste 13",Indianapolis,IN,46227,Riona Pruitt,(317)628-6208,N/A,39.689875,-86.14809386
363,Personal Care Service Agency,A & A Caregivers Llc,4232 Londonderry Drive,Indianapolis,IN,46221,Atta Atiya,(567)328-8045,N/A,39.7014724,-86.2435651
364,Personal Care Service Agency,A Caring Hand Home Care Llc,2336 Riviera Place,Greenwd,IN,46143,Chelsea Schwartz,(317)642-3844,N/A,39.62172176,-86.05552708
365,Personal Care Service Agency,A Comfortable Time Loving Home Care Llc,3336 Spring Wind Ln,Indianapolis,IN,46239,Angela Jenkins,(317)665-5164,N/A,39.71995745,-86.02110582
366,Personal Care Service Agency,A Miracle Homecare Llc,8147 Chesterhill Ln,Indianapolis,IN,46239,Damiya Driver,(317)777-9681,N/A,39.74161065,-86.02286547
367,Personal Care Service Agency,A Miracle In Care Personal Services Llc,2835 Wolfgang Way,Indianapolis,IN,46239,Latoya Smith,(317)384-5032,N/A,39.728664550000005,-86.02527829
368,Personal Care Service Agency,"A Radiance Homecare, Llc",9636 Piper Lake Drive,Indianapolis,IN,46239,Shaleea Mason,(317)640-5072,N/A,39.75706725,-85.99681353
369,Personal Care Service Agency,A Right On Time Homecare Llc,736 Sunridge Court,Indianapolis,IN,46239,Alison Mcallister,(317)332-2021,N/A,39.75909285,-85.97281859
370,Personal Care Service Agency,A Step Ahead Personal Care Llc,803 Treyburn Lakes Way,Indianapolis,IN,46239,Asya Barnett,(317)681-2689,N/A,39.75883035,-85.99399775
371,Personal Care Service Agency,A Touch Of Patience Home Care Llc,5211 Hidden Ridge Ct,Indianapolis,IN,46221,Kimberely Hill,(317)406-1372,N/A,39.67158825,-86.24946528
372,Personal Care Service Agency,A Touch With Love Llc,5728 S Emerson Ave,Indianapolis,IN,46237,Rianna Slaughter,(317)200-9642,N/A,39.6843563,-86.08370465
373,Personal Care Service Agency,A&L Home Cares Services Llc,221 Switchgrass Lane,New Whiteland,IN,46184,La Tone Thomas,(260)508-9345,N/A,39.6162869,-86.19329377
374,Personal Care Service Agency,Able Guardians Llc,7834 Lofton Court,Indianapolis,IN,46239,Towmara Butler,(317)446-6884,N/A,39.7449275,-86.02854847
375,Personal Care Service Agency,Above And Beyond Llc,7426 Hillway Drive,Camby,IN,46113,Taisha Nelson,(317)294-9797,N/A,39.65102787791687,-86.30574861
376,Personal Care Service Agency,Above And Beyond Quality Care Llc,2456 Summerwood Ln,Greenwood,IN,46143,Denicka Thomas,(765)398-1212,N/A,39.5812667,-86.1065302
377,Personal Care Service Agency,Absolute Love Home Care Llc,4937 W Jamestown Trce,New Palestine,IN,46163,Erica Black,(317)403-5018,N/A,39.76217311668005,-85.89418098
378,Personal Care Service Agency,Abundance Home Care Services Llc,13313 N Etna Green Drive,Camby,IN,46113,Lanetia Wooldridge,(317)319-8092,N/A,39.63263645,-86.11988842
379,Personal Care Service Agency,Abundance Of Love Homecare Llc,1187 Lakeshore Drive,Greenwood,IN,46143,Cherelle Pruitt,(463)246-4796,N/A,39.58640690592541,-86.13836565
380,Personal Care Service Agency,Accessicare Llc,4692 Duffy Road,Floyds Knobs,IN,47119,Debra Baker,(812)725-3843,N/A,38.30938306738414,-85.89803788
381,Personal Care Service Agency,Adequate Home Care Llc,6745 Gray Rd Suite K,Indianapolis,IN,46237,India Lewis,(317)731-3738,N/A,39.6665064,-86.09622625
382,Personal Care Service Agency,Ageless Reflections Personal Care Services Llc,8063 Madison Ave,Indianapolis,IN,46227,Charmaine Smith,(872)333-4021,N/A,39.66975170977684,-86.12875464
383,Personal Care Service Agency,Aging In Style Llc,41 B W Brookeville Road,Fountaintown,IN,46130,Wayne Todd Clark,(317)629-2373,N/A,39.74104755,-85.98595975
384,Personal Care Service Agency,All Around Clay Transportation Llc,5426 Snap Dragon Lane Apt 4,Indianapolis,IN,46203,Alycia Clay,(317)286-0616,N/A,39.71539455,-86.074543
385,Personal Care Service Agency,All Needs Homecare,150 Diplomat Ct # 5,Beech Grove,IN,46107,Donnetta Nielson,(317)864-6710,N/A,39.71307795,-86.08025727
386,Personal Care Service Agency,Allpro Staffnet Limited-Liability Company,6200 E Hwy 62 Ste 650,Jeffersonville,IN,47130,Louis Tapia,(615)848-1377,N/A,38.19041377263134,-86.33244857
387,Personal Care Service Agency,Ally Personal Care Llc,3259 E Hazelwood Dr,Vincennes,IN,47591,Michelle Sievers,(812)396-0544,N/A,38.66246200329877,-87.47890698
388,Personal Care Service Agency,Alsum Wings Personal Service Agency Llc,8020 Yarmouth Way,Indianapolis,IN,46239,Termera Alsum,(817)841-9524,N/A,39.704246600000005,-86.02487421
389,Personal Care Service Agency,Alternative Care Solutions Llc,1010 Ruby Creek Drive,Ellettsville,IN,47429,Tiffany Norris,(812)671-0247,N/A,38.325588800000006,-85.69400982
390,Personal Care Service Agency,Altra Homecare Of South Bend,2045 South Bend Avenue,South Bend,IN,46637,Michael Wynne,(574)208-5213,N/A,39.7420118,-86.05319646
391,Personal Care Service Agency,Always Available Family Homecare Llc,3338 Brandenburg Blvd,Indianapolis,IN,46239,Taree Vinson,(317)444-0785,N/A,39.7199267,-86.02934193
392,Personal Care Service Agency,American First Mercy Care Llc,13923 N Honey Creek Lane East,Camby,IN,46113,Balikis Plus,(832)744-4092,N/A,39.63107125514218,-86.3036336
393,Personal Care Service Agency,Amours Helping Hands Home Care Services Llc,10853 Midnight Dr,Indianapolis,IN,46239,Kyah Gaines,(213)716-7944,N/A,39.76159005,-85.97290945
394,Personal Care Service Agency,Anchor Of Life Llc,11712 Tillage Rd,Indianapolis,IN,46239,Sheila Beeler,(317)657-0956,N/A,39.75912045,-85.95732812
395,Personal Care Service Agency,Anew Life Solutions Llc,5319 Montavia Lane,Indianapolis,IN,46239,Miranda Sturgill,(317)868-6094,N/A,39.69098015,-86.02917552
396,Personal Care Service Agency,Angel At Your Door Llc,2515 S Carlota Dr,New Palestine,IN,46163,Nahomie Duquene,(317)378-0811,N/A,38.29765982122596,-85.69279499
397,Personal Care Service Agency,Angel Home Care Services Llc,7713 Belmac Lane,Camby,IN,46113,Chibuzo Micheal,(317)515-2011,N/A,39.6513405,-86.30804345
398,Personal Care Service Agency,Angelas Caring And Loving Home Care Llc,6817 Ridge Vale Pl 1A,Indianapolis,IN,46237,Angel Hill,(317)658-1575,N/A,39.6684233,-86.07659468
399,Personal Care Service Agency,Angelic Hearts Home Care,4901 Shakamak Court,Indianapolis,IN,46239,Shamika Buchanan,(317)550-0072,N/A,39.69795705,-85.98528105
400,Personal Care Service Agency,Angels Of Hope Home Care Llc,5401 East Street Suite 113,Indianapolis,IN,46227,Keyana Williams,(317)974-9600,N/A,39.6886668,-86.14831742
401,Personal Care Service Agency,Annie Homecare Services Llc,7708 Gold Rush Drive,Camby,IN,46113,Annie Gibson,(317)674-6515,N/A,39.651382,-86.31131803
402,Personal Care Service Agency,Aprommise Home Care Llc,2246 Harlan Street,Indianapolis,IN,46203,Porsha Harris,(317)694-9790,N/A,39.73662635,-86.12425426
403,Personal Care Service Agency,Arsell Home Care Llc,10041 Ironway Drive,Indianapolis,IN,46239,Janekka Taylor,(317)724-9260,N/A,39.7591834,-85.98852742
404,Personal Care Service Agency,Asantecare Llc,6707 Panther Way,Indianapolis,IN,46237,Alice Uwizeyimana,(317)800-7476,N/A,39.6641104,-86.05009563
405,Personal Care Service Agency,Assisting Your Loved Ones Homecare Llc,112 N Walnut Street Suite 500,Bloomington,IN,47404,Tuesday Ingram,(317)282-7372,N/A,39.1706722,-86.53313597
406,Personal Care Service Agency,Assuring Quality Living Homecare Services Llc,7243 Madison Village East Drive,Indianapolis,IN,46227,Breanna Woods,(317)728-4475,N/A,39.6615473853572,-86.12737089
407,Personal Care Service Agency,Barr Best Home Care Llc,1222 Rotherham Lane,Beech Grove,IN,46107,Theresa Barr,(463)336-2644,N/A,39.7091314,-86.096567
408,Personal Care Service Agency,Bee The Light Homecare Llc,9664 Gull Lake Dr,Indianapolis,IN,46239,Lashanna Thompson,(317)250-9829,N/A,39.7578813,-85.99605545
409,Personal Care Service Agency,Belindas Quality Care Llc,3306 Corey Drive,Indianapolis,IN,46227,Belinda Jones,(317)225-8566,N/A,39.6511653,-86.10946421
410,Personal Care Service Agency,Best Love Home Care Llc,8724 Shelby Street Unit A,Indianapolis,IN,46227,Patricia Ludlow,(317)464-0411,N/A,39.6389945,-86.13989357
411,Personal Care Service Agency,Better Homecare Services Llc,928 Garrison Drive,Greenwood,IN,46143,Jaskamal Sahi,(732)895-9902,N/A,39.58826802,-86.126859
412,Personal Care Service Agency,Beyond Best Care Llc,5391 Misthaven Ln,Greenwood,IN,46143,Linda Dadzie,(812)841-4447,N/A,39.59767618,-86.20389125
413,Personal Care Service Agency,Blessing & Grace Home Care Llc,641 Cynthia Ln,New Whiteland,IN,46184,Kimberly Mcdowell Rutherford,(317)993-4900,N/A,39.54005408,-86.09990562
414,Personal Care Service Agency,Blessing Of Hearts Llc,6060 Brockworth Dr Apt D,Indianapolis,IN,46203,Janis White,(317)748-8755,N/A,39.7205738,-86.06200813
415,Personal Care Service Agency,Blue River Services Inc,405 N Capitol Ave Ste 207,Corydon,IN,47112,Tammy Seitz,(812)738-2018,N/A,38.211415192495465,-86.12633942
416,Personal Care Service Agency,Bridges Of Indiana Inc,4763 Rosebud Lane,Newburgh,IN,47630,Cherrie Bonham,(812)475-8843,N/A,37.9657287,-87.450144
417,Personal Care Service Agency,"Bridges To Continuous Home Care, Llc",5214 S East St Ste D2,Indianapolis,IN,46227,Catrina Anderson,(463)221-2613,N/A,39.69134765,-86.14954695
418,Personal Care Service Agency,Brighter Dawn Llc,"1201 Indiana Avenue, # 1012",Indianapolis,IN,46202,Olusegun Ojewole,(662)801-5993,N/A,39.6459777,-85.1331513
419,Personal Care Service Agency,Brighter Way Care Llc,8101 Trail Stay Drive,Camby,IN,46113,Brooke Miles,(317)315-9653,N/A,39.645578400000005,-86.30682576
420,Personal Care Service Agency,Brightwell Personal Care Llc,1535 Brookite Court Apt 10,Greenwood,IN,46143,Dominique Woods,(910)929-0676,N/A,39.64355455,-86.3319121
421,Personal Care Service Agency,Brigid Homecare Llc,8915 South Keystone Suite I,Indianapolis,IN,46227,Bosede Acquaye,(317)362-7883,N/A,39.6368024,-86.12078561
422,Personal Care Service Agency,By Grace In-Home Care Llc,10544 Dunes Court,Indianapolis,IN,46239,Erika Burton,(317)245-7033,N/A,39.69999075,-85.97862581
423,Personal Care Service Agency,Care Access Group Inc,3012 E 56Th Street South Drive,Indianapolis,IN,46220,Shvonne Watson,(317)213-7975,N/A,39.657506600000005,-86.11315043
424,Personal Care Service Agency,Care In Motion Llc,8131 Kennedy Avenue,Highland,IN,46322,Heidi Dennies,(219)487-2090,N/A,39.6474399,-86.15506152
425,Personal Care Service Agency,Care Luxe Llc,10022 Jenna Lane,Indianapolis,IN,46239,Tomichlar Cooper,(317)292-0087,N/A,39.74755985,-85.98900869
426,Personal Care Service Agency,Care Source Indy Inc,7307 Us 31 Ste B,Indianapolis,IN,46227,Deepshi Dasaur,(445)444-5666,N/A,39.659755,-86.1403692
427,Personal Care Service Agency,"Care With Compassion, Llc",5438 Barbly Place Bldg 24,Indianapolis,IN,46237,Rakeisha Slaughter-Hampton,(317)414-3053,N/A,39.65990269,-86.07441438
428,Personal Care Service Agency,Careability Llc,488 Rocky Meadow Dr,Greenwood,IN,46143,Bibian Nnatubeugo,(317)903-0067,N/A,39.59284506256456,-86.11788351
429,Personal Care Service Agency,Careful Hands Home Care Llc,2911 Percheron Lane,Indianapolis,IN,46227,Kristen Blakey,(317)419-9499,N/A,39.71261615,-86.11455175
430,Personal Care Service Agency,"Cares, Llc","421 S Second Street, Ste 301",Elkhart,IN,46516,Candice Young,(574)404-4832,N/A,38.28433695,-85.81956918
431,Personal Care Service Agency,Caressing Hearts Home Care,8426 Country Club Blvd,Indianapolis,IN,46234,Dorian Ursery,(765)372-6440,N/A,39.7431606,-86.01819822
432,Personal Care Service Agency,Carewell Llc,5524 Orth Ct,Indianapolis,IN,46221,Jasmine Shotwell,(317)340-3241,N/A,39.6908299,-86.2576594
433,Personal Care Service Agency,Caring Hands To Your Door Llc,5435 Emerson Ave Suite 225,Indianapolis,IN,46226,Brittany Dodd,(463)248-9615,N/A,39.68875294,-86.08246345
434,Personal Care Service Agency,Ceasers Divine Home Care Llc,2020 Sotheby Lane,Indianapolis,IN,46239,Sahsa Butler,(317)282-9666,N/A,39.7421981,-86.0190659
435,Personal Care Service Agency,Center Of Peace Services Llc,8853 Story Drive,Camby,IN,46113,Onyeachu Favour,(317)531-3273,N/A,39.634856455555806,-86.32892842
436,Personal Care Service Agency,Choice Personal Care Service Llc,6538 Sulgrove Place,Indianapolis,IN,46221,Felicia Gilbert,(317)828-0252,N/A,39.675606,-86.27447234
437,Personal Care Service Agency,Circle City Companions Llc,2054 Coldwater Court,Indianapolis,IN,46239,Mya Johnson,(317)679-1336,N/A,39.7409961,-86.02818818
438,Personal Care Service Agency,Cita Angels Homecare Llc,5212 Madison Ave Ste G,Indianapolis,IN,46227,Brandee Patterson,(586)265-0252,N/A,39.6898797,-86.13635773
439,Personal Care Service Agency,Citadel Home Care Indy Llc,7523 Cole Wood Blvd,Indianapolis,IN,46239,Tywana Easley,(317)488-0495,N/A,39.7357456,-86.03453715
440,Personal Care Service Agency,Classic Care Home Care Services Llc,4056 Magnolia Dr,Franklin,IN,46131,Micheon Dillon,(317)531-9040,N/A,39.53850094680469,-86.08973512
441,Personal Care Service Agency,Coable Home Care Inc,4523 Hammerstone Court,Indianapolis,IN,46239,Jennifer Aikman,(317)590-3234,N/A,39.7028684,-86.02248935
442,Personal Care Service Agency,Coker Care Llc,1337 Lake Meadow Dr,Indianapolis,IN,46217,Goodluck Coker,(317)658-2505,N/A,39.68368295,-86.18367262
443,Personal Care Service Agency,Comforcare Home Care,3725 E Southport Rd Ste F,Indianapolis,IN,46227,Elizabeth Bigham,(317)664-5136,N/A,39.66523572,-86.10338528
444,Personal Care Service Agency,Comfort Care Companions Llc,6119 Karst Dr,Indianapolis,IN,46221,,Tel: (317)525-7054,N/A,39.6606101,-86.2667085
445,Personal Care Service Agency,Comfort Care Home Care Llc,2338 Ashton Lane,Greenwd,IN,46143,Courtney Hall,(463)867-8518,N/A,39.58359029,-86.12984306
446,Personal Care Service Agency,Comfort Keepers #259,3017 Virginia Ave,Connersville,IN,47331,Lisa Webb,(765)827-2001,N/A,39.67498340493347,-85.13200072
447,Personal Care Service Agency,Comfort Keepers #371,4334 East Third St Suite 200,Bloomington,IN,47401,Lori Hess,(812)822-0145,N/A,39.16417331,-86.47698943
448,Personal Care Service Agency,Comfort Keepers Personal Services,1335 Sadlier Circle East Dr,Indianapolis,IN,46239,Lacey Osborn,(317)788-0777,N/A,39.7496011,-86.03625198
449,Personal Care Service Agency,Comforting Touch Home Services Llc,15142 Betton Pl,Fishers,IN,46037,Anthony Tennille,(317)992-1917,N/A,39.65018996332463,-86.066266
450,Personal Care Service Agency,Community Alternatives Southeast,4341 Security Parkway Suite 101,New Albany,IN,47150,Amy Kelley,(812)218-1969,N/A,38.36460944,-85.80663701
451,Personal Care Service Agency,Community Integration Support Services Llc,1335 Sadlier Circle East Drive,Indianapolis,IN,46239,Steve Phillips,(317)429-9885,N/A,39.7496011,-86.03625198
452,Personal Care Service Agency,Companionship Home Care Llc,7942 Wolfgang Place,Indianapolis,IN,46239,Danielle Richardson,(317)250-4368,N/A,39.729161000000005,-86.02611846
453,Personal Care Service Agency,Compassionate Care At Home Llc,7242 Kimble Drive,Indianapolis,IN,46217,Cassandra Robinson,(317)201-9870,N/A,39.6596276,-86.2048315
454,Personal Care Service Agency,Compassionate Minds Home Care Llc,7615 Stockard Street,Indianapolis,IN,46239,Christopher Hardiman,(317)370-1990,N/A,39.7443438,-86.0329008
455,Personal Care Service Agency,Comprehensive Home Care Llc,8208 Firefly Way,Indianapolis,IN,46259,Aigner Garner,(317)970-0315,N/A,39.64976595,-85.97228874
456,Personal Care Service Agency,Cornerstone Caregiving,1320 W Bloomfield Rd Ste C,Bloomington,IN,47403,Tina Miller,(812)714-1427,N/A,39.14585085545465,-86.57604037
457,Personal Care Service Agency,"Cornerstone Caregiving East, Llc","5144 E Stop 11 Rd, Ste 22",Indianapolis,IN,46237,Hannah Britt,(463)230-7966,N/A,39.65124787,-86.08155449
458,Personal Care Service Agency,Cornwine Home Care Llc,3318 Kent Drive,Brownsburg,IN,46112,Wisdom Femi Ogunyemi,(317)603-6878,N/A,38.2910267,-85.54748498
459,Personal Care Service Agency,"Covenant Patient Care, Llc",7876 Housefinch Lane,Indianapolis,IN,46239,Anthony Turner,(317)989-5527,N/A,39.70631605,-86.02753575
460,Personal Care Service Agency,Crossroads Care Services Llc,1373 Brookside Drive,Columbus,IN,47201,Jennifer Eubanks,(812)373-6115,N/A,39.15073999834528,-85.94064954
461,Personal Care Service Agency,Damar Services Inc,6067 Decatur Blvd,Indianapolis,IN,46241,Jennifer Maggard,(317)856-5201,N/A,39.67301795,-86.30221863
462,Personal Care Service Agency,Dayel Homecare Services Llc,13852 N Hawkers Hill Drive,Camby,IN,46113,Damilola Lawal Bankole,(317)801-4519,N/A,39.629026348771816,-86.31250151
463,Personal Care Service Agency,Dayz Home Care Services Llc,6347 Furnas Rd,Indianapolis,IN,46221,Prince Ekhosuehi,(317)893-7011,N/A,39.6808166,-86.27115529
464,Personal Care Service Agency,Desirree Dedicated Home Care Llc,626 Crossfield Dr,Indianapolis,IN,46239,Veronica Petty,(317)970-3683,N/A,39.76029865,-85.98303264
465,Personal Care Service Agency,Destined For A Purpose Personal Care Service Llc,1787 Feather Reed Ln,Greenwd,IN,46143,Channelle Parker,(317)628-3390,N/A,39.58828559,-86.09188884
466,Personal Care Service Agency,Devoted Harmony Homecare Llc,6159 Black Oaks Way,Indianapolis,IN,46237,Cassandra Williams,(317)362-1209,N/A,39.68503865,-86.05942253
467,Personal Care Service Agency,Devoted Home Care Llc,"3090 N Morton Street, Lot 78",Franklin,IN,46131,Debora Slater,(317)494-6228,N/A,39.4920081,-86.0665478
468,Personal Care Service Agency,Devoted To You Llc,9683 Trail Drive,Avon,IN,46123,Ashley Johnson,(317)777-2968,N/A,39.65138405054729,-86.05639548
469,Personal Care Service Agency,Diversified Nurse Consultants Llc,7425 Frank Ott Rd,Georgetown,IN,47122,Virginia Jones,(812)913-4308,N/A,38.301824816157854,-85.94270774
470,Personal Care Service Agency,Divine Family Care Llc,7499 Williams St,Merrillville,IN,46410,Devena Buntyn,(219)407-2993,N/A,39.75702747943873,-85.77835813
471,Personal Care Service Agency,Divine Key Llc,2821 Mozart Way,Indianapolis,IN,46239,Keiandra Jones,(317)478-1610,N/A,39.72815765,-86.02753229
472,Personal Care Service Agency,Dominion Favour Homecare Llc,8337 Burket Way,Camby,IN,46113,Joshua Atilola,(463)201-9818,N/A,39.64190655,-86.30877116
473,Personal Care Service Agency,Dorien Compassionate Homecare Llc,4985 North Franklin Road,Indianapolis,IN,46226,Tywan Green,(317)649-0410,N/A,39.2241595,-86.64072425
474,Personal Care Service Agency,Dots Loving Homecare Llc,8631 New Heritage Drive,Indianapolis,IN,46239,Trina Hawkins-Staten,(317)697-0477,N/A,39.69973995,-86.01421642
475,Personal Care Service Agency,"Dreamers Home Care, Llc",7957 Harshaw Drive,Indianapolis,IN,46239,Stephanie Pettigrew,(317)801-4792,N/A,39.73299005,-86.02574551
476,Personal Care Service Agency,"Dynasty Haven, Llc",820 W 17Th St Ste 7,Bloomington,IN,47404,Danielle Willis,(812)369-4076,N/A,39.17908387,-86.54241147
477,Personal Care Service Agency,Ease Your Mind Home Care Llc,1039 Holmdale Drive,Indianapolis,IN,46239,Ciera Scott,(317)550-0171,N/A,39.75729653716542,-85.98651189
478,Personal Care Service Agency,"Ec4F Home Care, Inc",110 East Market Street,New Albany,IN,47150,Tracey May,(812)670-3500,N/A,38.2845098,-85.8230461
479,Personal Care Service Agency,Elara Caring,3925 E Hagan Street Suite 202,Bloomington,IN,47401,Kari Fletcher,(812)231-5085,N/A,39.16300987,-86.47964937
480,Personal Care Service Agency,Elevate Life Care Llc,2248 Maple Stone Lane,Greenwood,IN,46143,Martha Njeri,(317)985-4866,N/A,39.58259524796572,-86.13329171
481,Personal Care Service Agency,Elite Personal Care Llc,1009 14Th St Suite B,Bedford,IN,47421,William Deckard,(812)675-0384,N/A,38.861237200000005,-86.48473768
482,Personal Care Service Agency,Elom Care Llc,2253 Hampton Drive,Franklin,IN,46131,Alida Faton,(463)202-1160,N/A,39.50539375908152,-86.03998383
483,Personal Care Service Agency,Emmanuel Home Care Llc,8063 Madison Ave #1324,Indianapolis,IN,46227,Hermon Tesfaldet,(317)603-8966,N/A,39.64841477,-86.12134334
484,Personal Care Service Agency,"Empathykare Home Care, Llc",764 Greenwood Springs Drive Apt 1208,Greenwd,IN,46143,Myra Anderson,(765)823-0896,N/A,39.62954045,-86.0769983
485,Personal Care Service Agency,Enlight Homecare Services,1624 Laurel Lane,Munster,IN,46321,Chirag Patel,(630)297-5994,N/A,39.6456925,-86.18918802
486,Personal Care Service Agency,Equality Love Homecare Llc,6048 Brockworth Drive F,Indianapolis,IN,46203,Donyah Williams,(317)868-7731,N/A,39.720198100000005,-86.06200826
487,Personal Care Service Agency,Ervochmida Home Care,2919 W Bargello Ln,Monrovia,IN,46157,Nerlie Saintil,(317)721-3626,N/A,39.585940050000005,-86.48347585
488,Personal Care Service Agency,Evelyn Wells Llc,4708 Angelica Drive,Indianapolis,IN,46237,Temi Wright,(317)661-1330,N/A,39.69915175,-86.05849422
489,Personal Care Service Agency,Everhome Care Llc,5314 Camden Lane,Greenwd,IN,46143,Krystle Jacquin,(317)264-9801,N/A,39.57148098,-86.20427009
490,Personal Care Service Agency,Executive Home Care Llc,494 S Emerson Ave Suite I1,Greenwood,IN,46143,Emmah Muita,(317)273-9316,N/A,39.60973661,-86.08268981
491,Personal Care Service Agency,Faith Personal Care Inc,2121A W Mill Rd,Evansville,IN,47720,Tamika Liebhart,(812)431-8424,N/A,38.4314495,-86.2233121
492,Personal Care Service Agency,Family First Companion Care,3101 N Greenriver Rd Ste 240,Evansville,IN,47715,Rashelle Hammack,(812)401-4311,N/A,38.00595147,-87.49221058
493,Personal Care Service Agency,Family First Home Care Llc,6199 Palomar Circle,Indianapolis,IN,46234,Jamie Kennedy,(317)416-8089,N/A,39.74396429822965,-86.02749543
494,Personal Care Service Agency,Familyhomecare Llc,1901 Jessica Court,Indianapolis,IN,46239,Ericka Halbert,(317)513-9179,N/A,39.7450507,-85.98683715
495,Personal Care Service Agency,Fancys Home Care Llc,3341 Carica Dr,Indianapolis,IN,46203,Ashley Beech,(317)675-7027,N/A,39.7190911,-86.059274
496,Personal Care Service Agency,Favored Home Care Llc,2951 Wolfgang Drive,Wanamaker,IN,46239,Trina Robinson,(317)653-9511,N/A,39.7258532,-86.03076876
497,Personal Care Service Agency,First Generation Home Care Llc,6258 Whitaker Farm Drive,Indianapolis,IN,46237,Ronald Kemp,(317)657-0235,N/A,39.65314325,-86.05814025
498,Personal Care Service Agency,"Fomas Home Care Services, Llc",7610 Bolero Drive,Camby,IN,46113,Samuel Massaley Ii,(317)201-2462,N/A,39.65307245,-86.3102616
499,Personal Care Service Agency,Four Seasons Home Care Llc,"5401 S East Street, Ste 207 D",Indianapolis,IN,46227,Brianna Malone,(463)205-9777,N/A,39.6878398,-86.14865886
500,Personal Care Service Agency,From Our Hearts To Your Home Llc,5732 Matteson Drive,Indianapolis,IN,46235,September Northington,(317)695-4969,N/A,39.68621265,-86.06794938
501,Personal Care Service Agency,Fulfill Your Expectations Home Care Llc,7646 Justin Lane,Indianapolis,IN,46219,Rose Cochran,(317)473-4277,N/A,39.6567938,-86.02706276
502,Personal Care Service Agency,G&S Homecare Llc,8054 States Bend Dr,Indianapolis,IN,46239,Leatrice Breedlove,(317)557-7800,N/A,39.71997865,-86.02393474
503,Personal Care Service Agency,Gentle Care Services Llc,702 Greenwood Springs Drive #2314,Greenwood,IN,46143,Tiea Winston Anderson,(317)319-1220,N/A,39.59085195,-86.10860295
504,Personal Care Service Agency,Genuine Hands Home Care Llc,9607 Gull Lake Drive,Indianapolis,IN,46239,Alexis Perkins,(317)384-8738,N/A,39.75790845,-85.9976233
505,Personal Care Service Agency,Gilmera's Touch Home Care Llc,3332 Brandenburgh Blvd,Indianapolis,IN,46239,Jennifer Armstead,(317)985-0884,N/A,39.72007065,-86.0293471
506,Personal Care Service Agency,Gloria's Home Care Service Inc,7424 S Sherman Drive,Indianapolis,IN,46237,Gloria Romanchik,(219)308-7228,N/A,39.6589189,-86.10180853
507,Personal Care Service Agency,Golden Compassion Home Care Llc,3621 Calhoun St,Indianapolis,IN,46203,Talesha Ford,(463)600-9934,N/A,39.740121,-86.1045969
508,Personal Care Service Agency,Golden Heart Caregivers Llc,56 South Park Blvd,Greenwood,IN,46143,Terri Dearing,(317)871-2600,N/A,39.6205124,-86.0801329
509,Personal Care Service Agency,Golden Milestone Care Solutions Llc,6938 Devinney Lane,Indianapolis,IN,46221,Shamika Carter,(317)499-7554,N/A,39.6634741,-86.25681974
510,Personal Care Service Agency,Good Deeds Homecare Llc,10646 Pavilion Dr,Indianapolis,IN,46259,Megan Hines,(317)690-1256,N/A,39.6525843,-85.97755325
511,Personal Care Service Agency,Grace Assured Home Care Llc,2243 Wisdoms Court,Avon,IN,46123,Ben Donkor,(317)717-7843,N/A,39.71740575,-86.12213688
512,Personal Care Service Agency,Grace Homecare Llc,8686 Madison Ave Ste C,Indianapolis,IN,46227,Sui Doi,(317)893-4527,N/A,39.64008175,-86.11951721
513,Personal Care Service Agency,Grace Homecare Services Llc,4238 Viva Lane,Indianapolis,IN,46239,Emmanuel Kolleh,(317)945-0225,N/A,39.7063637,-86.03450548
514,Personal Care Service Agency,Graceful Home Care Llc,5251 South East St Suite 3,Indianapolis,IN,46227,Priscilla Mukuba,(978)237-1093,N/A,39.689875,-86.14809386
515,Personal Care Service Agency,Granny Nannies,665 Martin John Rd Ne,Lanesville,IN,47136,Stephanie Riggle,(812)572-4428,N/A,38.2086494,-85.96730751
516,Personal Care Service Agency,Guardian Gems Home Care Llc,545 Christy Dr Ste 1130,Greenwood,IN,46143,Jodeci Henderson,(317)779-4924,N/A,39.6332683,-86.0953504
517,Personal Care Service Agency,Guardian Home Care Services Llc,4013 Denali Drive,Indianapolis,IN,46235,Jennitta Nicholson Shanklin,(317)668-8559,N/A,39.6590954,-86.09808633
518,Personal Care Service Agency,Happy Helpers Personal Care Llp,8745 Winding Ridge Road,Indianapolis,IN,46217,Alexandria Fox,(463)280-3257,N/A,39.63770525,-86.19385219
519,Personal Care Service Agency,Happy Home Care Inc,749 Commerce Pkwy West Dr Suite B,Greenwood,IN,46143,Manjit Kaur,(463)283-3060,N/A,39.60734262,-86.06612688
520,Personal Care Service Agency,Happy Life Home Care Llc,8119 Corktree Drive,Indianapolis,IN,46239,Peter Mbuuke,(317)965-0668,N/A,39.7162799,-86.02324143
521,Personal Care Service Agency,Hardison Touch Home Care Llc,8352 Bravestone Way,Indianapolis,IN,46239,Sandra Talleyrand,(917)215-2947,N/A,39.73397945,-86.01902096
522,Personal Care Service Agency,Hatties Personal Touch Home Care Llc,9711 Treyburn Green Way,Indianapolis,IN,46239,Paula Hayes,(317)414-9173,N/A,39.7556196,-85.99522888
523,Personal Care Service Agency,Healing Hands Homecare Agency Llc,450 S State Road 135,Greenwood,IN,46142,Edward Moore Jr,(317)300-0604,N/A,39.61521855,-86.1444584
524,Personal Care Service Agency,Healing Haven Homecare Solutions Llc,7547 Mather Lane,Indianapolis,IN,46239,Sharita Bundoo,(812)302-2535,N/A,39.7035604,-86.03344405
525,Personal Care Service Agency,Healing Life Home Care Llc,8915 S Keystone Ave,Indianapolis,IN,46227,Amanda Stout,(317)797-3556,N/A,39.6368024,-86.12078561
526,Personal Care Service Agency,Heart In Good Hand Llc,5233 Potomac Lane,Greenwood,IN,46142,Abala Koma Tassike,(317)974-9907,N/A,39.6092135,-86.20063135
527,Personal Care Service Agency,Heart To Heart Personal Care Services Llc,10857 Delphi Dr,Camby,IN,46113,Pamela Sykes,(317)992-4123,N/A,39.636844132376105,-86.32779122
528,Personal Care Service Agency,Heartfilled Hands Llc,5450 Mary Ann Lane,Merrillville,IN,46410,Nicole Green,(219)238-4535,N/A,39.68761645,-86.06546522
529,Personal Care Service Agency,Hearts Haven Home Care Llc,1927 Lisa Walk Dr,Indianapolis,IN,46227,Pauline Jones,(317)869-9170,N/A,39.6525405,-86.12556935
530,Personal Care Service Agency,Hearts N Harmony Home Care Llc,6545 Newstead Drive,Indianapolis,IN,46217,Naomi Pannell,(765)268-9957,N/A,39.67000415,-86.1890458
531,Personal Care Service Agency,Heaven's Halo Llc,104 Brentview Ct,Charlestown,IN,47111,Tabitha Burns,(502)348-4739,N/A,38.4642432,-85.6694902
532,Personal Care Service Agency,Heavenly Grace Home Care Llc,940 Monteray Rd,Greenwood,IN,46143,Jorden Boone,(317)402-6457,N/A,39.6036959,-86.0978436
533,Personal Care Service Agency,Heavenly Healing Homecare Llc,7850 Bullfinch Lane,Indianapolis,IN,46239,Julliet Kofa,(317)724-1968,N/A,39.70546415,-86.02778399
534,Personal Care Service Agency,Heebee Homecare Agency Llc,8332 Ossian Ct,Camby,IN,46113,Ibironke Hampton,(301)634-6594,N/A,39.64220097,-86.31169185
535,Personal Care Service Agency,Help At Home Llc,225 S Emerson Avenue Suite 195,Greenwood,IN,46143,Tajah Glover,(317)884-7266,N/A,39.61424198,-86.08258985
536,Personal Care Service Agency,Help At Home Llc,2325 Green Valley Road Ste 103,New Albany,IN,47150,Taylor Hoffman,(812)941-9700,N/A,38.34539781415676,-85.83653929
537,Personal Care Service Agency,Help At Home Llc,1425 Corporate Way,Seymour,IN,47274,Ally Nierman,(812)524-7110,N/A,38.9483901,-85.9087558
538,Personal Care Service Agency,Help At Home Llc,1515 Union Street,Lafayette,IN,47904,Mary Loney,(317)233-7492,N/A,39.1740227,-86.5521653
539,Personal Care Service Agency,Helping Hands Companion Services,7208 Inland Ct,Georgetown,IN,47122,Terry Graham,(502)426-9783,N/A,38.32720231,-85.9411273
540,Personal Care Service Agency,Helping Hands Senior Living,8502 Brookville Rd Ste 7,Indianapolis,IN,46239,Dadeh Yarmento,(574)334-2448,N/A,39.74913885,-86.0158055
541,Personal Care Service Agency,Hinkle Home Care Llc,2480 Dawson St,Indianapolis,IN,46203,Katrina Stewart,(317)518-9391,N/A,39.7325613,-86.1284169
542,Personal Care Service Agency,Hishealinghands Llc,"308 E 21St Ave, Office 1",Gary,IN,46407,Crystal Mayberry,(219)802-4285,N/A,39.7274984,-86.10680418
543,Personal Care Service Agency,Holy Spirit Personal Home Care,3737 Laurel Cherry Lane,Indianapolis,IN,46239,Ferrin Parham,(317)507-4553,N/A,39.7122729,-86.10072679
544,Personal Care Service Agency,Home Helpers Of Southern Indiana,158 Jefferson Street N Suite B,Nashville,IN,47448,Joanie Hayes,(812)988-6832,N/A,39.21049535788763,-86.24816045
545,Personal Care Service Agency,Home Instead Senior Care,633 Library Park Dr Ste G,Greenwood,IN,46142,Michael Bunnell,(317)888-4300,N/A,39.60682515810455,-86.15732683
546,Personal Care Service Agency,Home Instead Senior Care,1355 W Bloomfield Rd Ste 2,Bloomington,IN,47403,Danielle Blake,(812)961-2222,N/A,39.16389465,-86.58115527
547,Personal Care Service Agency,Home Instead Senior Care,635 Metro Ave,Evansville,IN,47715,Rachel Sherwood,(812)471-0050,N/A,37.9796881,-87.4796666
548,Personal Care Service Agency,Home Of My Own Llc,6339 Pinebark Place,Indianapolis,IN,46217,Kenny Krebs,(463)336-2128,N/A,39.67356492,-86.19988193
549,Personal Care Service Agency,Home Sweet Home Care,2735 Washington Ave,Vincennes,IN,47591,Leah Schutter,(877)281-5777,N/A,38.6873338,-87.4952271
550,Personal Care Service Agency,Homecourt Home Care,124 Oak Forrest Drive,Bluffton,IN,46714,Lindsay Gentis,(260)333-1114,N/A,38.288505614270726,-87.06417871
551,Personal Care Service Agency,Homelights Care Llc,8245 Wheatfield Court,Camby,IN,46113,Jacqueline Achoh,(317)418-3965,N/A,39.6431865,-86.30790035
552,Physician Office Laboratories,Hmh Primary Care Main Campus,1210 Kentucky Highway 36 East,Cynthiana,KY,41031,,(859) 234-9955,N/A,38.40360016,-84.31452813
553,Personal Care Service Agency,Honest Homecare Services Llc,6467 Furnas Road,Indianapolis,IN,46221,Clarissa Houston,(317)767-5548,N/A,39.68177725,-86.27317803
554,Personal Care Service Agency,Honest Touch And Love Home Care Llc,9732 Evening Sky Way,Indianapolis,IN,46239,Victoria Porter,(317)737-0537,N/A,39.70683789643512,-85.99553221
555,Personal Care Service Agency,Hoosier Helping Hands Llc,564 Graves Addition Road,Avoca,IN,47420,Brittany Kern,(812)508-6688,N/A,38.9154901,-86.551877
556,Personal Care Service Agency,Humble Hands At Home Llc,5530 S Arlington Ave,Indianapolis,IN,46237,Stephanie Goddard,(317)445-9099,N/A,39.686460800000006,-86.06394569
557,Personal Care Service Agency,Ida's Home Care Llc,1263 Odell Ln,Greenwood,IN,46143,Crystal Willis,(317)794-6979,N/A,39.5990506,-86.110894
558,Personal Care Service Agency,In Good Faith Home Care,6920 S East St Ste B,Indianapolis,IN,46227,Taleia Powell,(800)789-6005,N/A,39.66527115,-86.14851565
559,Personal Care Service Agency,In Loving Hands Home Care Llc,2436Asbury St,Indianapolis,IN,46203,Cecara Durgan,(317)827-3849,N/A,39.7335444,-86.12926502
560,Personal Care Service Agency,Independence Personal Care Llc,8282 S Nineveh Rd,Nineveh,IN,46164,Melissa Rutherford,(317)933-3310,N/A,39.450405,-86.5730759
561,Personal Care Service Agency,Individualized Care Services Llc,660 Yeagy Road,Greenwood,IN,46142,Christopher Ikemire,(463)867-7433,N/A,39.623401361840095,-86.1949232
562,Personal Care Service Agency,"Indy Home Assist, Llc",1340 Gleneagle Drive,Indianapolis,IN,46239,Latricia Graves,(317)834-7177,N/A,39.75167655,-85.98746042
563,Personal Care Service Agency,Insight To Love Llc,4508 Je 6Th Ave,Gary,IN,46403,Andrea Hooker,(475)273-9593,N/A,39.05020400203555,-85.52827953
564,Personal Care Service Agency,Inspirational Touch Home Care Llc,915 Curlew Lane,Greenwood,IN,46143,Debra P Davis,(317)504-4005,N/A,39.5952384,-86.0843045
565,Personal Care Service Agency,Interim Homestyles Services Of Indianapolis,373 Meridian Parke Lane Suite A-1,Greenwood,IN,46142,Ashley Warrenburg,(317)755-1687,N/A,39.61960123,-86.16224858
566,Personal Care Service Agency,Interim Homestyles Services Of Se Indiana,3200 N National Rd,Columbus,IN,47201,Ashley Warrenburg,(812)799-1846,N/A,39.2356,-85.92776
567,Personal Care Service Agency,Iris Home And Personal Care,7740 Colewood Blvd,Indianapolis,IN,46239,Lashonda Lee,(317)201-2340,N/A,39.73458278,-86.03011186
568,Personal Care Service Agency,Islamic Home Care Of America Llc,"5233 S Old State Rd 37, Office D",Bloomington,IN,47401,Ali Alani,(812)929-6094,N/A,38.27639272501903,-86.47344853
569,Personal Care Service Agency,Jasmine Forever Care Services Llc,"720 Executive Park Dr, Ste 1800",Greenwood,IN,46143,Felicia Suberu,(765)558-1947,N/A,39.60556619487093,-86.11023863
570,Personal Care Service Agency,Jess Angels Homecare Llc,6060 Brockworth Drive Apt #G,Indianapolis,IN,46203,Jessica Holder,(317)929-9876,N/A,39.7205738,-86.06200813
571,Personal Care Service Agency,Jessie's Hands Home Care Services Llc,3149 Carson Ave,Indianapolis,IN,46227,Tasha Anderson,(463)291-9091,N/A,39.72022845,-86.13373945
572,Personal Care Service Agency,Journee's & Company Llc,7904 Fox Glen Dr,Indianapolis,IN,46239,Stacy Carey,(317)603-6655,N/A,39.7337101,-86.02748388
573,Personal Care Service Agency,"Journey North Care Management, Llc","445 5Th Street, Suite B",Columbus,IN,47201,Jenny Waltz,(812)343-2958,N/A,39.203455656030044,-85.9218249
574,Personal Care Service Agency,Journey To Success Home Care Llc,5230 South Illinois Street,Indianapolis,IN,46217,Tracey Gray,(317)640-9011,N/A,39.6898854,-86.15996854
575,Personal Care Service Agency,Journis Pathway Residential Services Llc,8441 Wheatfield Drive,Camby,IN,46113,Rahsheda Clark,(317)478-5887,N/A,39.6404122,-86.30785467
576,Personal Care Service Agency,Joyful Life Limited Liability Company,6619 Eagles Nest Lane,Mc Cordsville,IN,46055,Telisha Berry,(317)496-1540,N/A,38.74146261806045,-86.74940676
577,Personal Care Service Agency,Just Like Family Home Care Llc,608 Stone Crossing Place Apt B,Indianapolis,IN,46227,Channell Mason,(317)439-7127,N/A,39.670809042144334,-86.14746284
578,Personal Care Service Agency,K And R Hoosier Home Care Llc,2511 Redland Lane,Indianapolis,IN,46217,Wykeika Whitt,(317)412-7322,N/A,39.6695447,-86.20287486
579,Personal Care Service Agency,Kaiser Home Support Services Inc,2633 Grant Line Rd,New Albany,IN,47150,Kelley Troutman,(812)945-6868,N/A,38.34366745,-85.81964118
580,Personal Care Service Agency,Kare For You Home Care Services Llc,5435 Emerson Way Ste 340,Indianapolis,IN,46226,Victoria Washington,(317)478-3224,N/A,39.66327245,-86.25518577
581,Personal Care Service Agency,Karing Hearts Homecare Llc,3026 Percheron Lane,Indianapolis,IN,46227,Quiana Harlin,(765)350-9110,N/A,39.71159645,-86.11256277
582,Personal Care Service Agency,Karing Warm Hearts Home Care Llc,4246 Fox Harbour East Dr,Indianapolis,IN,46227,Angaleak Bush,(317)388-5646,N/A,39.7039849,-86.1163593
583,Personal Care Service Agency,Kay's Home Of Compassion Llc,1633 Villa Avenue,Indianapolis,IN,46203,Arria Suggs,(317)332-2237,N/A,39.73299545,-86.1312253
584,Personal Care Service Agency,Keeping Comfort Home Services Llc,3355 Carpenter Court,Indianapolis,IN,46203,Diamond Joiner,(317)381-1901,N/A,39.74229525,-86.10867882
585,Personal Care Service Agency,Kind Hearts Home Care Llc,3230 Cork Bend Drive,Indianapolis,IN,46239,Anitra King,(317)540-3457,N/A,39.721939,-86.02727831
586,Personal Care Service Agency,"Kindred Spirits Home Care, Llc",109 W 86Th Avenue,Merrillville,IN,46410,Erika Barefield,(219)472-8167,N/A,38.2748633,-85.74185071
587,Personal Care Service Agency,Kings & Queens Home Care Llc,8325 Burket Way,Camby,IN,46113,Veltmon Weah,(317)970-6290,N/A,39.641906500000005,-86.30840096
588,Personal Care Service Agency,Kj Care Llc,7157 Moultrie Drive,Indianapolis,IN,46217,Sorsor Kerbeh,(973)280-4862,N/A,39.66077675,-86.20526952
589,Personal Care Service Agency,Kobi Home Care Services Llc,5150 E Stop 11 Rd Suite 9,Indianapolis,IN,46237,Kashindi Msambilwa,(317)519-5285,N/A,39.6375052,-86.07842051
590,Personal Care Service Agency,Leading With A Purpose Home Care Llc,7651 Lara Lee Drive,Indianapolis,IN,46239,Samuel Dodson,(317)941-5856,N/A,39.70593545,-86.03134816
591,Personal Care Service Agency,Legacy Caregiving,4855 South Emerson Avenue Suite 202,Indianapolis,IN,46203,Brooke Baise,(317)374-2593,N/A,39.6972993,-86.0815111
592,Personal Care Service Agency,Legacy Personal Care Services Llc,5647 James Blair Drive,Indianapolis,IN,46234,Ashley King-Clemmons,(317)503-4773,N/A,39.68611735,-86.05908748
593,Personal Care Service Agency,Lenora''s Trustworthy Home Care Llc,6731 Valley Forge Ln,Indianapolis,IN,46237,Lenore Waters-Tyler,(317)832-2384,N/A,39.66949875,-86.05313625
594,Personal Care Service Agency,Life Choice Llc,5214 S State Road 9,Greenfield,IN,46140,Frances Gallahger,(317)586-8229,N/A,39.6734558,-86.24932706
595,Personal Care Service Agency,Lifespan Companion Care Llc,8725 Shelby Street,Indianapolis,IN,46227,Jessica Lindsay,(317)333-8240,N/A,39.6385911,-86.13899906
596,Personal Care Service Agency,Lillian Ashby Homecare Llc,1401 Spring St,Jeffersonville,IN,47130,Aspen Thompson,(812)697-0368,N/A,38.33028565,-85.6982649
597,Personal Care Service Agency,Lillie's Angels Home Care Llc,2911 Angeline Drive,Indianapolis,IN,46203,Daphane Buggs,(317)840-3470,N/A,39.72577265,-86.06212807
598,Personal Care Service Agency,Little Guy With Big Dreams Home Care Llc,328 Albany Street,Indianapolis,IN,46225,Jessica Smith,(317)492-3091,N/A,39.723642,-86.153067
599,Personal Care Service Agency,Living Well Home Care,1490 W Main St,Mitchell,IN,47446,Latoya Lamm,(812)849-6000,N/A,38.7315598,-86.4852377
600,Personal Care Service Agency,Love Help Care Llc,6326 Rucker Road Suite H,Indianapolis,IN,46235,Latonya Boyd,(317)668-7555,N/A,39.6375052,-86.07842051
601,Personal Care Service Agency,Love Is Care Llc,6304 Emerald Springs Dr,Indianapolis,IN,46221,Ingrid Wells,(317)453-6608,N/A,39.67249635,-86.27404901
602,Personal Care Service Agency,Loveyn Personal Home Care Llc,5251 S East Street Suite 214A,Indianapolis,IN,46227,Eyshulai Brown,(317)681-0765,N/A,39.689875,-86.14809386
603,Personal Care Service Agency,Loving Moments Homecare Services Llc,3139 Black Forest Ln,Indianapolis,IN,46239,Thelma Franklin,(317)625-4147,N/A,39.7229099,-86.0315433
604,Personal Care Service Agency,Lsi Homecare Llc,2322 S Randolph St,Indianapolis,IN,46203,Laveda Logan,(317)918-8408,N/A,39.7354278,-86.12685043
605,Personal Care Service Agency,Lynn's Personal Service Agency Inc,3130 Shadow Brook Drive,Indianapolis,IN,46214,Sherelle Jackson,(877)973-3723,N/A,39.65805645,-86.2110935
606,Personal Care Service Agency,M Y Companion Care Llc,2222 Dunewood Place Apt 536,Indianapolis,IN,46217,Yanarah Mentor,(561)787-4004,N/A,39.66014495,-86.1989279
607,Personal Care Service Agency,M&M Personal Care Services,2550 Greythorne Drive,Indianapolis,IN,46239,Mary Black,(317)751-5549,N/A,39.7329004,-86.03344166
608,Personal Care Service Agency,Mae Flowers Homecare Llc,7149 Southeastern Avenue,Indianapolis,IN,46239,Joann Williams,(317)992-5816,N/A,39.70978795,-86.04125947
609,Personal Care Service Agency,Magnolia Angels Llc,7662 Us 31 S,Indianapolis,IN,46227,Mykeshia Burton,(317)220-8499,N/A,39.65532775,-86.14155816
610,Personal Care Service Agency,Making A Difference Home Care Llc,5894 Antoneli Dr,Indianapolis,IN,46237,London Thomas,(317)840-1681,N/A,39.68637725,-86.06563304
611,Personal Care Service Agency,Making A Difference Home Care Services Llc,6024 Copeland Mills Drive,Indianapolis,IN,46221,Nicole Mcneil,(317)551-0118,N/A,39.67592265,-86.26552858
612,Personal Care Service Agency,Marzaz Home Care Llp,189 Meadowview Lane,Greenwood,IN,46142,Zaza Mulbah,(317)300-1029,N/A,39.616965645029794,-86.13920202
613,Personal Care Service Agency,"Mattieida's Peace, Llc",1868 S Reilly Lane,New Palestine,IN,46163,Neache Hood,(317)617-8104,N/A,39.75828272214,-85.89483184
614,Personal Care Service Agency,Mending Bridges Home Care Services,2869 Ludwig Drive,Indianapolis,IN,46239,Antonia Phillips,(317)851-6710,N/A,39.7272543,-86.02895319
615,Personal Care Service Agency,Miracle Hands Home Care Llc,7521 Derek Drive,Camby,IN,46113,Juliet Okonkwo,(317)332-7385,N/A,39.65379365,-86.31072123
616,Personal Care Service Agency,More Than You See Home Care Llc,5111 Sandy Forge Drive,Indianapolis,IN,46221,Candace Thomas,(317)828-8859,N/A,39.678368250000005,-86.2481306
617,Personal Care Service Agency,Mother's Gifted Hands Llc,5201 Mesa Verde Drive,Indianapolis,IN,46237,Danielle Freeman,(317)625-6702,N/A,39.69217930000001,-86.05441174
618,Personal Care Service Agency,Mother's Gifted Hands Llc,4937 Jamestown Trace,New Palestine,IN,46163,Danille Freeman,(317)625-6702,N/A,39.76217311668005,-85.89418098
619,Personal Care Service Agency,Ms Bee's Helping Hands Home Care Llc,1734 Irish Lake Lane,Indianapolis,IN,46239,Doushan Babb,(317)662-9990,N/A,39.74700938663685,-85.9765841
620,Personal Care Service Agency,Naima Homecare Services Llc,6611 Owls Head Drive Apt B,Indianapolis,IN,46217,Leangela Hardiman,(317)531-2249,N/A,39.66928865,-86.20075535
621,Personal Care Service Agency,"Naomi's Loving Home Care, Llc",8043 Fisher Bend Drive,Indianapolis,IN,46239,Sierrah Lewis,(317)381-1410,N/A,39.7210453,-86.02411425
622,Personal Care Service Agency,Nautical Home Care Llc,202 Stoneview Lane,Mooresville,IN,46158,Michelle Laflower,(317)414-7646,N/A,39.606204,-86.3523735
623,Personal Care Service Agency,"New Beginnings At Home, Llc","2905 State St, Ste C",Columbus,IN,47201,Myra Hurt,(812)407-2998,N/A,39.19152731,-85.89040798
624,Personal Care Service Agency,New Dawn Compassionate Care Llc,3420 Cobblefield Drive,Evansville,IN,47711,Dawn Owens,(812)431-9100,N/A,38.03108797,-87.50711638
625,Personal Care Service Agency,New Hope Services Inc,725 Wall St,Jeffersonville,IN,47130,Jody Heazlitt,(812)288-8248,N/A,38.6823376,-85.79947368
626,Personal Care Service Agency,New Horizons Rehabilitation Inc,237 Six Pine Ranch Rd,Batesville,IN,47006,Jimmy Ryan,(812)934-4528,N/A,39.313010380047295,-85.20818104
627,Personal Care Service Agency,"New Solutions For Better Results, Corp",930 Leisure Lane,Greenwood,IN,46142,Kenneth Barrett,(317)493-5814,N/A,39.62751207767965,-86.17207584
628,Personal Care Service Agency,Next Level Homecare Agency Corp,10325 Whispering Way,Indianapolis,IN,46239,Toi Mcgregor-Ahmad,(317)661-0224,N/A,39.7385972,-85.98344897
629,Personal Care Service Agency,No Place Like Home Care Services Llc,6510 Caressa Way,Indianapolis,IN,46259,Latosha Teague,(765)240-6752,N/A,39.6738682,-86.01804801
630,Personal Care Service Agency,"Noble Hearts Agency, Llc","5222 South East Street, Suite #B6",Indianapolis,IN,46227,Elia Enci,(317)672-4819,N/A,39.69091285,-86.14959245
631,Personal Care Service Agency,Nurtureme Homecare Llc,8513 Vanguard Lane,Indianapolis,IN,46239,Tekeyah Willis,(317)649-2150,N/A,39.7336793,-86.0167629
632,Personal Care Service Agency,Nurturing Lives Homecare  Llc,3328 Carica Drive,Indianapolis,IN,46203,Johnay Douglas,(317)628-9062,N/A,39.71943675,-86.05975946
633,Personal Care Service Agency,Older Americans Services Corporation,1901 S Orleans Way,Orleans,IN,47452,Greg Mahuron,(812)865-3352,N/A,38.6679426,-86.45432542
634,Personal Care Service Agency,Oncare Alliance Llc,3006 S Mooresville Rd,Indianapolis,IN,46221,Disheeka Barrett,(317)566-4314,N/A,39.7205772,-86.22065545
635,Personal Care Service Agency,One Touch Home Care Llc,6917 Devinney Lane,Indianapolis,IN,46221,Tiffany Tyler,(317)918-5403,N/A,39.66376405,-86.2558984
636,Personal Care Service Agency,Optimal Comfort  Inc,4350 Madison Ave Apt 609,Indianapolis,IN,46227,Sharon Hampton,(317)315-7703,N/A,39.7020771,-86.14189585
637,Personal Care Service Agency,Our Personal Care,2626 E 17Th St,Columbus,IN,47201,Julie Davis,(812)314-8000,N/A,39.21650135,-85.89268846
638,Personal Care Service Agency,Pace Healing Helpers Llc,720 Executive Park Dr Ste 1700,Greenwood,IN,46143,Cedrick Pace,(317)828-9088,N/A,39.60556619487093,-86.11023863
639,Personal Care Service Agency,Passion Home Care Llc,6050 E Arrival Pkwy,Camby,IN,46113,Learglor Vah Sr,(267)893-8312,N/A,39.62233333,-86.31599658
640,Personal Care Service Agency,Passionate Providers Llc,2125 Dixie Hwy,Bedford,IN,47421,Robbin Ricketts,(812)329-6101,N/A,38.78952498,-86.50695133
641,Personal Care Service Agency,Perfect Home Care Llc,755 Locust Drive,Danville,IN,46122,Dauda Ajibade,(317)665-4964,N/A,39.64281885,-86.14435539
642,Personal Care Service Agency,Personal Care Services Of Gary,1281 W Ridge Rd,Gary,IN,46408,Denedra Hawkins,(219)981-8440,N/A,39.450405,-86.5730759
643,Personal Care Service Agency,Personal Quality Care Inc,6775 Sr 158,Bedford,IN,47421,Kristy Miller,(812)583-2823,N/A,38.8609347,-86.5274349
644,Personal Care Service Agency,Priority Care,7850 E North Drive,Camby,IN,46113,Heather Robinson,(317)319-9661,N/A,39.65027055,-86.28472379
645,Personal Care Service Agency,Prolific Home Care Service Llc,4448 Ozark Lane,Indianapolis,IN,46239,Shakeya Webb,(317)665-7242,N/A,39.7013963,-86.0266103
646,Personal Care Service Agency,Providence Home Care Llc,3206 Brandenburg Dr,Indianapolis,IN,46239,Angel Hunter,(317)420-5536,N/A,39.7219409,-86.02654649
647,Personal Care Service Agency,Qualicare/Southwest Indiana,873 Third Ave,Jasper,IN,47546,Amy Gehlhausen,(812)817-3009,N/A,38.37621028,-86.91485736
648,Personal Care Service Agency,Quality Comfort Home Care Llc,8316 Bravestone Way,Indianapolis,IN,46239,Lisa Wilson,(800)710-1497,N/A,39.73343605,-86.02007995
649,Personal Care Service Agency,Quality Pathways Home Care Llc,2318 Salem Park Drive,Indianapolis,IN,46239,Teria Peterson,(317)442-5113,N/A,39.73748904999999,-86.02279703
650,Personal Care Service Agency,Queen Of Hearts Home Care Llc,3059 Arrowroot Lane,Indianapolis,IN,46239,Nijawa Brooks,(908)644-5478,N/A,39.72383962669589,-86.0279898
651,Personal Care Service Agency,"Raw Home Care Services, Llc",5645 E Raymond St,Indianapolis,IN,46203,Ranada Williams-Edmonds,(317)550-1044,N/A,39.4717188,-84.8494002
652,Personal Care Service Agency,Ready And Able 2 Love Llc,4007 Baker Drive,Indianapolis,IN,46235,Tammie Mcneil,(317)603-7098,N/A,39.6809742,-86.09810776
