INDEX,ADDRESS,ADMINISTRATOR,CITY,FACILITY_TYPE,NAME,PHONE,ST,ZIP,OWNER,lat,long
6,1214 Spring St,Elizabeth Quinkert,Jeffersonville,Birthing Center,Tree Of Life Birth Center,(812)920-1580,IN,47130,,38.328749,-85.69956074724215
11,1565 South Liberty Dr,,Bloomington,Blood Center,Biolife Plasma Services Lp,(812)334-1405,IN,47403,,39.153038,-86.5741927
17,"5341 E Thompson Rd,",,Indianapolis,Blood Center,"Biomat Usa, Inc",(317)974-9494,IN,46237,,39.689779650000006,-86.05585634487525
21,110 W Ridge Rd,,Griffith,Blood Center,"Biomat Usa, Inc",(219)513-4222,IN,46319,,39.450405,-86.5730759
29,"5905 Madison Ave, Suite E",,Indianapolis,Blood Center,"Csl Plasma, Inc",(317)808-5998,IN,46227,,39.680674800000006,-86.12954997622137
33,4025 W 3Rd St,,Bloomington,Blood Center,"Csl Plasma, Inc",(812)558-2257,IN,47404,,39.21651,-86.58463611463046
34,7750 E Ridge Rd,,Hobart,Blood Center,"Csl Plasma, Inc",(219)484-2099,IN,46342,,39.450405,-86.5730759
37,3902 S Madison Avenue,,Indianapolis,Blood Center,Grifols Bio Supplies Inc,(317)786-4470,IN,46227,,39.709854,-86.1145295
40,699 Creekview Dr,,Columbus,Blood Center,Join Parachute- Columbus,(812)416-5891,IN,47201,,39.20521268030484,-85.88410172502049
58,6213 Royal Gate Pl,Pardeep Gill,Indianapolis,Home Health,Care4U Home Health Services Inc,(317)567-3448,IN,46237,,39.642612650000004,-86.05944441680575
66,213 Us 231,Lori Persohn,Jasper,Home Health,Family Palliative Care,(812)996-0674,IN,47546,,38.389156,-86.9415595
72,800 N Bell Trace Cir,Jennifer Norris,Bloomington,Home Health,Lifespan Home Health Llc,(812)332-2355,IN,47408,,39.16978305,-86.49023223994253
79,48 North Emerson Avenue Suite 300,Keri Johnson,Greenwood,Home Health,Pentec Health Inc,(317)807-1551,IN,46143,,39.616448099553,-86.082741996842
89,1930 Edison Road,,South Bend,Hospice,Ascent Hospice Llc,(574)213-2727,IN,46617,,39.672981199999995,-86.19506768774892
101,301 Henry St,Christina Crank,North Vernon,Hospital,Ascension St Vincent Jennings,(812)352-4228,IN,47265,,39.0103129,-85.64108477280786
105,911 N Shelby St,Donna Cassidy,Salem,Hospital,Ascension St Vincent Salem,(812)883-5881,IN,47167,,38.613387,-86.10730540552507
107,1116 Millis Ave,Alexander Chang,Boonville,Hospital,Ascension St Vincent Warrick,(812)897-4800,IN,47601,,38.0421806,-87.2628586
110,1850 State St,Michael Schroyer,New Albany,Hospital,Baptist Health Floyd,(812)944-7701,IN,47150,,38.301249,-85.8339081621545
111,3600 N Prow Rd,Christine Schultz,Bloomington,Hospital,Bloomington Meadows Hospital,(812)331-8000,IN,47404,,39.20605315,-86.55098737289987
112,3050 N Lintel Drive,Andrew Keen,Bloomington,Hospital,Bloomington Regional Rehabilitation Hospital Llc,(812)336-2815,IN,47404,,39.2025645,-86.5905282
114,4488 Roslin Rd,John Strachan,Newburgh,Hospital,Brentwood Springs,(812)858-7200,IN,47630,,37.992979250000005,-87.33168074074511
115,1612 Blackiston View Drive,Rosa Mcgowen,Clarksville,Hospital,Brightwell Behavioral Health,(574)339-3094,IN,47129,,38.3203711,-85.7673302
118,2400 E 17Th St,Jacob Baker,Columbus,Hospital,Columbus Regional Hospital,(812)379-4441,IN,47201,,39.21817825,-85.89501240807752
120,607 South Greenwood Springs Drive,Michelle Russell,Greenwood,Hospital,Community Health Network Rehabilitation Hosp So,(317)215-3808,IN,46143,,39.6281387,-86.0755379
127,1402 E County Line Rd S,Elizabeth Tharp,Indianapolis,Hospital,Community Hospital South,(317)887-7000,IN,46227,,39.63728905,-86.13248842133666
130,1314 E Walnut St,Dana Muntz,Washington,Hospital,Daviess Community Hospital,(812)254-2760,IN,47501,,38.65937665,-87.15976061477349
133,720 N Lincoln St,Rex Mckinney,Greensburg,Hospital,Decatur County Memorial Hospital,(812)663-4331,IN,47240,,39.344366300000004,-85.47807963647904
138,9355 Warrick Trail,Blake Bunner,Newburgh,Hospital,Encompass Health Deaconess Rehabilitation Hospital,(812)476-9983,IN,47630,,37.9785544,-87.42002238116854
145,8111 S Emerson Ave,Lori Price,Indianapolis,Hospital,Franciscan Health Indianapolis,(317)528-5000,IN,46237,,39.64839485,-86.078781935364
148,1201 Hadley Rd,Lori Price,Mooresville,Hospital,Franciscan Health Mooresville,(317)831-1160,IN,46158,,39.6071477,-86.35571359811001
155,1185 N 1000 W,Brenda Reetz,Linton,Hospital,Greene County General Hospital,(812)847-2281,IN,47441,,39.0395837,-87.1292062
158,1141 Hospital Dr Nw,Lisa Clunie,Corydon,Hospital,Harrison County Hospital,(812)738-4251,IN,47112,,38.237854850000005,-86.14756256239666
164,285 Bielby Rd,Greg Duncan,Lawrenceburg,Hospital,Incompass Healthcare,(812)537-1302,IN,47025,,39.1116132,-84.8821125
170,2900 W 16Th St,Larry Bailey,Bedford,Hospital,Indiana University Health Bedford Hospital,(812)275-1200,IN,47421,,38.858581650000005,-86.51291626785004
173,642 W Hospital Rd,Michele Ridge,Paoli,Hospital,Indiana University Health Paoli Hospital,(812)723-2811,IN,47454,,38.56820835,-86.47501795758988
178,2651 East Discovery Parkway,Denzil Ross,Bloomington,Hospital,Iu Health Bloomington Hospital,(812)353-5252,IN,47408,,39.17734385,-86.50352701223837
181,1125 W Jefferson St,David Dunkle,Franklin,Hospital,Johnson Memorial Hospital,(317)736-3300,IN,46131,,39.4795986,-86.07711235759359
188,711 Green Rd,Peggy Stephens,Madison,Hospital,Madison State Hospital,(812)265-2611,IN,47250,,38.7457725,-85.40184497034983
189,2451 Intelliplex Dr,John Horner,Shelbyville,Hospital,Major Hospital,(317)392-3211,IN,46176,,39.56038565,-85.78590578003448
191,321 Mitchell Ave,Liz Leising,Batesville,Hospital,Margaret Mary Health,(812)934-6624,IN,47006,,39.3052395,-85.22310787663487
194,1167 Wilson Dr,Greg Justice,Greenwood,Hospital,Medical Behavioral Hospital Of Indianapolis,(844)457-5300,IN,46143,,39.71897453487411,-85.88450532508466
196,800 W 9Th St,Keith Miller,Jasper,Hospital,Memorial Hospital And Health Care Center,(812)996-2345,IN,47546,,38.39512575,-86.94077400436541
200,4011 S Monroe Medical Park Blvd,Luis Leon,Bloomington,Hospital,Monroe Hospital,(812)825-1111,IN,47403,,39.1203582,-86.57181037497892
208,1220 Missouri Ave,Kathleen Exline,Jeffersonville,Hospital,Norton Clark Hospital,(812)283-2147,IN,47130,,38.281978,-85.74935233823837
209,1451 N Gardner St,Kathleen Exline,Scottsburg,Hospital,Norton Scott Hospital,(812)752-3456,IN,47170,,38.70528095,-85.78644730794068
210,1373 East Sr 62,Carol Dozier,Madison,Hospital,Norton-King's Daughters' Health,(812)801-0105,IN,47250,,38.79112635,-85.36445907575859
218,2101 Broadway Street,Waylon Maynard,Clarksville,Hospital,Pam Health Rehabilitation Hospital Of Greater Indi,(812)913-6880,IN,47129,,38.3294451,-85.7657752
227,8885 Sr 237,Jared Stimpson,Tell City,Hospital,Perry County Memorial Hospital,(812)547-7011,IN,47586,,37.9674866,-86.73178189138744
228,4023 Reas Ln,Dennis Medley,New Albany,Hospital,Physicians' Medical Center Llc,(812)206-7660,IN,47150,,38.34001765,-85.82798862134712
242,1300 N Main St,Bradley Smith,Rushville,Hospital,Rush Memorial Hospital,(765)932-7513,IN,46173,,39.621737100000004,-85.44384897780687
245,411 W Tipton St,Eric Fish,Seymour,Hospital,Schneck Medical Center,(812)522-2349,IN,47274,,38.9551568,-85.89181350961489
249,600 Wilson Creek Rd,Chris Carle,Lawrenceburg,Hospital,St Elizabeth Dearborn Hospital,(812)497-7665,IN,47025,,39.11104025,-84.88327854625064
256,4199 Gateway Blvd,Christina Ryan,Newburgh,Hospital,The Women's Hospital,(812)842-4200,IN,47630,,37.9745541,-87.44769918161033
261,898 E Main St,Kristen Primeau,Greenwood,Hospital,Valle Vista Health System,(317)883-5300,IN,46143,,39.585888350000005,-86.08374180520983
262,2700 Vissing Park Rd,Gregory Stewart,Jeffersonville,Hospital,Wellstone Regional Hospital,(812)284-8000,IN,47130,,38.32690075,-85.7094495407332
273,19816-3 Sr 120,Donna Belusar,Bristol,Interim Care,Adec Inc,(574)848-7453,IN,46507,,39.72426455,-86.08524790688921
286,400 Mill St,Stan Keepes,Winslow,Interim Care,"Arc Southwest Indiana, The",(812)386-6312,IN,47598,,38.3431073,-87.0538905
296,9228 W Cr 950 N,Anne Titus,Elizabethtown,Interim Care,Benchmark Human Services,(260)744-6145,IN,47232,,39.1220777,-85.76663375
299,9285 W Cr 950 N,Anne Titus,Elizabethtown,Interim Care,Benchmark Human Services,(260)744-6145,IN,47232,,39.1220777,-85.76663375
314,2405 W County Road 200 North,Anne Titus,North Vernon,Interim Care,Benchmark Human Services,(260)744-6145,IN,47265,,39.005881,-85.62416910535714
329,423 E Silver Street,Timothy Ramsey,Bluffton,Interim Care,Bi-County Services Inc,(260)824-1253,IN,46714,,38.6280492,-84.56882663541441
335,293 Summit View Drive,Daniel Lowe,Corydon,Interim Care,Blue River Services Inc,(812)738-4557,IN,47112,,39.617183999999995,-86.18108236167949
336,281 Mcgrain St,Daniel Lowe,Corydon,Interim Care,Blue River Services Inc,(812)738-7904,IN,47112,,38.2219637,-86.1325561
337,3607 Klerner Ln,Daniel Lowe,New Albany,Interim Care,Blue River Services Inc,(812)945-6781,IN,47150,,38.3330899,-85.8082709
362,651 South 100 East,Amy Kelley,Washington,Interim Care,Community Alternatives Sw In,(812)352-6220,IN,47501,,38.6570866,-87.17427222523051
363,4555 Elm Dr,Carissa Foster,Newburgh,Interim Care,Community Alternatives Sw In,(812)433-3535,IN,47630,,37.96741549836783,-87.39796408891942
368,2745 Windemere Dr,Carissa Foster,Evansville,Interim Care,Community Alternatives Sw In,(812)433-3535,IN,47725,,38.063817300004985,-87.51584653533061
369,525 S Skyview Dr,Amy Kelley,Jasper,Interim Care,Community Alternatives Sw In,(812)683-3798,IN,47546,,38.379561800000005,-86.97042275
370,6611 Cheshire Dr,Carissa Foster,Newburgh,Interim Care,Community Alternatives Sw In,(812)433-3535,IN,47630,,37.99443986992624,-87.3707809964551
388,314 W 13Th St,Jeremy Bowser,Anderson,Interim Care,Developmental Service Alternatives,(765)649-3198,IN,46016,,38.307544,-86.95596770332321
395,2326 Berwick Dr,Jeremy Bowser,Shelbyville,Interim Care,Developmental Service Alternatives,(317)398-0000,IN,46176,,39.50033379686613,-85.798127735803
402,3100 W Private Rd 385 N,Pamela Pace,North Vernon,Interim Care,Developmental Services Inc,(812)376-9404,IN,47265,,39.0601448,-85.6640607
403,3839 Camelot Ln,Pamela Pace,Columbus,Interim Care,Developmental Services Inc,(812)376-9404,IN,47203,,39.2276929,-85.8770513
405,4251 River Rd,Pamela Pace,Columbus,Interim Care,Developmental Services Inc,(812)376-9404,IN,47203,,39.2452231,-85.9171875
409,426 E Montgomery Rd.,Pamela Pace,Greensburg,Interim Care,Developmental Services Inc,(812)376-9404,IN,47240,,39.355623100677775,-85.46778090181455
410,830 Evergreen Drive,Pamela Pace,Seymour,Interim Care,Developmental Services Inc,(812)376-9404,IN,47274,,38.94883023115902,-85.88484196744288
412,113 Jennings St,Pamela Pace,North Vernon,Interim Care,Developmental Services Inc,(812)376-9404,IN,47265,,39.00602395,-85.62617911990681
413,583 Camelot Dr,Pamela Pace,Seymour,Interim Care,Developmental Services Inc,(812)376-9404,IN,47274,,38.9622303,-85.9104137
415,339 W Jefferson St,Steve Burton,Spencer,Interim Care,Developmental Services Inc,(812)829-1833,IN,47460,,39.2840296,-86.7663221
416,1922 Limestone Dr,Steve Burton,Ellettsville,Interim Care,Developmental Services Inc,(812)876-8721,IN,47429,,39.2410991,-86.61262
417,1826 S Covey Lane,Steve Burton,Bloomington,Interim Care,Developmental Services Inc,(812)332-9615,IN,47401,,39.162039500000006,-86.51143318487068
458,605 Sherwood Drive,Deanne Holmes,Crown Point,Interim Care,In-Pact Inc,(219)662-1905,IN,46307,,39.712888500000005,-86.09073393031863
466,410 Liberty Street,Nash Dunn,Bicknell,Interim Care,Knox County Association For Remarkable Citizens,(812)895-0059,IN,47512,,38.2998148,-86.9544987
503,3000 Bailey Ln,Carissa Foster,Evansville,Interim Care,Normal Life Of Indiana,(812)433-3535,IN,47710,,38.095514496495,-87.510749311406
535,1222 Bloomington,Charles Schroeder,Greencastle,Interim Care,Putnam County Comprehensive Services Inc,(765)653-9763,IN,46135,,39.174396,-86.5491793
536,108 Altra Dr,Judy Brettsschneider,Clarksville,Interim Care,Quality Community Services Inc,(812)285-8710,IN,47129,,38.31679427911493,-85.77054114374434
537,4 Sylvan Ln,Judy Brettsschneider,Jeffersonville,Interim Care,Quality Community Services Inc,(812)282-7148,IN,47130,,38.30413540061812,-85.69261966879145
538,1620 Shelby Pl,Judy Brettsschneider,New Albany,Interim Care,Quality Community Services Inc,(812)948-8183,IN,47150,,38.29631825,-85.81220044265051
541,428 Cypress,M Kelley Schneider,Newburgh,Interim Care,Rehabilitation Center Developmental Services,(812)858-5238,IN,47630,,37.94639605,-87.41184121779557
542,420 Fuquay Rd,M Kelley Schneider,Evansville,Interim Care,Rehabilitation Center Developmental Services,(812)473-1414,IN,47715,,37.9716302,-87.4595196
548,568 Yorktown Rd,Jacque Pulling,Greenwood,Interim Care,Rem Occazio Llc,(317)887-6574,IN,46142,,39.6082512,-86.1401709
549,511 Country Club Ln,Jacque Pulling,Anderson,Interim Care,Rem Occazio Llc,(765)643-9734,IN,46015,,39.46607379359045,-86.40022527998268
556,38 Ryan Dr,Jacque Pulling,Trafalgar,Interim Care,Rem Occazio Llc,(317)878-5149,IN,46181,,39.41029625,-86.16260405
558,11 Gloria Dr,Elizabeth Nelson,Trafalgar,Interim Care,Rem Occazio Llc,(317)878-4267,IN,46181,,39.414738636373094,-86.15677924617596
559,1015 S 14Th St,Jacque Pulling,New Castle,Interim Care,Rem Occazio Llc,(765)529-8386,IN,47362,,39.1756695,-86.54629048148148
560,1650 E Jefferson St,Jacque Pulling,Franklin,Interim Care,Rem Occazio Llc,(317)738-2343,IN,46131,,38.2770227,-85.7371604
563,699 Graham St Apts 2 & 8,Elizabeth Nelson,Franklin,Interim Care,Rem Occazio Llc,(317)736-8990,IN,46131,,39.487273889866,-86.055093800271
572,3201 Davis Road,Jacque Pulling,Indianapolis,Interim Care,Rem-Indiana Inc,(317)894-2091,IN,46229,,39.7228106,-85.9890657794648
577,1406 W Tarkington Dr,Jacque Pulling,Greensburg,Interim Care,Rem-Indiana Inc,(812)662-8626,IN,47240,,39.35439450602238,-85.50119421246802
578,82 Benny Ln,Jacque Pulling,North Vernon,Interim Care,Rem-Indiana Inc,(812)346-6858,IN,47265,,39.0118988,-85.643843
598,402 Ewing Ln,Amy Kelley,Jeffersonville,Interim Care,Res Care Community Alternatives Se In,(812)258-2370,IN,47130,,38.2894958,-85.7087055
599,154 Chad Dr,Gega Sharp,Versailles,Interim Care,Res Care Community Alternatives Se In,(812)352-6220,IN,47042,,39.23529504354772,-86.61693070132732
600,3011 Apache Dr,Amy Kelley,Jeffersonville,Interim Care,Res Care Community Alternatives Se In,(812)258-2370,IN,47130,,38.354308399999994,-85.68296927308322
601,2401 Cornwell Dr,Amy Kelley,Jeffersonville,Interim Care,Res Care Community Alternatives Se In,(812)258-2370,IN,47130,,38.33530519209407,-85.73928138151757
603,13009 Horizon Dr,Amy Kelley,Memphis,Interim Care,Res Care Community Alternatives Se In,(812)258-2370,IN,47143,,38.443644095123,-85.810468055025
604,115 Stonegate,Mark Norris,Bedford,Interim Care,Res Care Community Alternatives Se In,(812)352-6220,IN,47421,,38.875871427944,-86.386969160538
605,1818 H St,Mark Norris,Bedford,Interim Care,Res Care Community Alternatives Se In,(812)352-6220,IN,47421,,38.8579264,-86.4809438
606,1337 E Southview Ln,Amy Kelley,Paoli,Interim Care,Res Care Community Alternatives Se In,(812)258-2370,IN,47454,,38.56329745,-86.48310427142175
607,427 W Longest St,Amy Kelley,Paoli,Interim Care,Res Care Community Alternatives Se In,(812)258-2370,IN,47454,,38.567170169353794,-86.47451628747648
609,3607 Middle Rd,Amy Kelley,Jeffersonville,Interim Care,Res Care Community Alternatives Se In,(812)258-2370,IN,47130,,38.16443503167034,-86.05088973579359
611,13711 Bennettsville Rd,Amy Kelley,Memphis,Interim Care,Res Care Community Alternatives Se In,(812)258-2370,IN,47143,,38.448614191903,-85.815258816733
613,16611 Sima Gray Rd,Amy Kelley,Henryville,Interim Care,Res Care Southeast Indiana,(812)294-1155,IN,47126,,38.51271515,-85.76746683370024
614,16609 Sima Gray Rd,Amy Kelley,Henryville,Interim Care,Res Care Southeast Indiana,(812)294-3322,IN,47126,,38.511760130129886,-85.76874061677705
615,16613 Sima Gray Rd,Amy Kelley,Henryville,Interim Care,Res Care Southeast Indiana,(812)258-2370,IN,47126,,38.511760130129886,-85.76874061677705
616,1306 S Bloomington Street,Michael Shepherd,Greencastle,Interim Care,Res-Care Inc,(765)653-5738,IN,46135,,39.1725713,-86.51841389074048
618,1725 W Country Club Rd,Teresa Henderson,Connersville,Interim Care,Residential Crf Inc,(765)825-5129,IN,47331,,39.64282625404614,-85.19883286477331
620,311 N Dorsett Dr,,Connersville,Interim Care,Residential Crf Inc,(765)825-5129,IN,47331,,39.64523067484023,-85.17947200942618
623,2375 W Us Hwy 36,Teresa Henderson,Danville,Interim Care,Residential Crf Inc,(765)825-5129,IN,46122,,39.663920250000004,-86.11846880083957
627,100 Gray Rd,Teresa Henderson,Connersville,Interim Care,Residential Crf Inc,(765)825-5129,IN,47331,,39.6389907,-85.16423857985232
629,1004 Ranch Rd,Teresa Henderson,Connersville,Interim Care,Residential Crf Inc,(765)825-5129,IN,47331,,39.6379672,-85.160391
630,3624 Grand Avenue,,Connersville,Interim Care,Residential Crf Inc,(765)825-5129,IN,47331,,39.63618256289957,-85.14317253760007
631,6155 W 800 N,Teresa Henderson,Fountaintown,Interim Care,Residential Crf Inc,(765)825-5129,IN,46130,,39.639897476576046,-85.79344601049942
632,2228 35Th St,Bitta Dewees,Bedford,Interim Care,Stone Belt Arc Inc,(812)275-4982,IN,47421,,39.135332,-86.50631292447333
633,3502 Festive Dr,Bitta Dewees,Bloomington,Interim Care,Stone Belt Arc Inc,(812)339-2031,IN,47401,,39.130328500000005,-86.57623458842795
634,1835 Maxwell St,Bitta Dewees,Bloomington,Interim Care,Stone Belt Arc Inc,(812)332-7247,IN,47401,,39.14446825,-86.51677889819909
635,713 E Miller Dr,Bitta Dewees,Bloomington,Interim Care,Stone Belt Arc Inc,(812)334-1241,IN,47401,,39.11656,-86.5252209
636,4100 Deckard Dr,Bitta Dewees,Bloomington,Interim Care,Stone Belt Arc Inc,(812)333-1526,IN,47408,,39.173322,-86.48186802782263
637,214 E Southern Dr,Bitta Dewees,Bloomington,Interim Care,Stone Belt Arc Inc,(812)332-9959,IN,47401,,39.148812500000005,-86.53141450000001
638,2606 H St,Bitta Dewees,Bedford,Interim Care,Stone Belt Arc Inc,(812)278-8121,IN,47421,,38.8605624,-86.50728591548534
639,1118 22Nd St,Bitta Dewees,Bedford,Interim Care,Stone Belt Arc Inc,(812)275-5176,IN,47421,,38.8538136,-86.48649
640,1006 W 11Th St,Bitta Dewees,Bloomington,Interim Care,Stone Belt Arc Inc,(812)337-0802,IN,47404,,39.1734606,-86.54590014840878
649,4812 W Sr 45,Jacque Pulling,Bloomington,Interim Care,Transitional Services Sub Llc,(812)825-5038,IN,47401,,39.2273512,-86.6024121
650,701 Riley Blvd,Jacque Pulling,Bedford,Interim Care,Transitional Services Sub Llc,(812)275-5071,IN,47421,,38.99757404738953,-85.13030425859353
651,369 W Washington St,Jacque Pulling,Morgantown,Interim Care,Transitional Services Sub Llc,(812)597-4988,IN,46160,,39.37108,-86.26508599526088
660,2944 Dietz St,Jacque Pulling,Indianapolis,Interim Care,Transitional Services Sub Llc,(317)782-9892,IN,46203,,39.7233981,-86.1286559
674,9 Summit Dr,Gega Sharp,Aurora,Interim Care,Voca Corporation Of Indiana,(812)352-6220,IN,47001,,39.036130069376625,-84.92619665596796
676,6525 Mcfarland Rd,Jeff Rubin,Indianapolis,Interim Care,Voca Corporation Of Indiana,(317)359-2076,IN,46227,,39.6721333,-86.1109414
693,3525 E Hanna Ave,Deborah Baah,Indianapolis,Long Term Care,Altenheim Health & Living Community,(317)788-4261,IN,46237,,39.7073987,-86.10508868971004
700,410 W Lagrange Rd,Jay Nowlin,Hanover,Long Term Care,Aperion Care Hanover,(812)866-2625,IN,47243,,38.71526281929722,-85.47623710149593
708,"3801 Old Bruceville Road, Box 136",Dianna Strauser,Vincennes,Long Term Care,Aperion Care Vincennes,(812)882-1783,IN,47591,,38.697073600136,-87.480498532767
716,2200 N Riley Hwy,Zachary Simpson,Shelbyville,Long Term Care,Ashford Place Health Campus,(317)398-8422,IN,46176,,39.556326,-85.775717
718,2320 N Montgomery Road,Mikayla Schneider,Greensburg,Long Term Care,Aspen Place Health Campus,(812)527-2222,IN,47240,,39.3459922488752,-85.4726866147292
719,3154 South State Road 135,Emily Carnes,Greenwood,Long Term Care,Aspen Trace Health & Living Community,(317)535-3344,IN,46143,,39.716978749999996,-86.22540142409198
727,2911 Green Valley Rd,Brandy D'Angelo,New Albany,Long Term Care,Autumn Woods Health Campus,(812)941-9893,IN,47150,,38.32062715,-85.83836083730728
734,3700 Lafayette Pkwy,Melissa Prenatt,Floyds Knobs,Long Term Care,Azalea Hills,(812)923-4888,IN,47119,,38.32699211154,-85.872154786201
737,2002 Albany St,Jeremiah Johnson,Beech Grove,Long Term Care,Beech Grove Meadows,(317)783-2911,IN,46107,,39.7239784,-86.10528997217389
738,4200 Wyntree Dr,,Newburgh,Long Term Care,Bell Oaks Place,(812)858-0488,IN,47630,,37.974296344696,-87.396799894706
739,725 Bell Trace Circle,Kelsey Haislip,Bloomington,Long Term Care,Bell Trace Health And Living Center,(812)323-2858,IN,47408,,39.1689974,-86.4888937
741,540 Belmont Drive,Tyler Reed,Columbus,Long Term Care,"Belmont Health & Rehabilitation, The",(812)669-5500,IN,47201,,39.1185962,-86.5294163
744,3928 Horne Ave,Jason Kirby,New Albany,Long Term Care,Bennett Place,(812)948-1960,IN,47150,,38.348621092169644,-85.8022719857447
745,601 E Race St,Matthew Millikan,Odon,Long Term Care,Bertha D Garten Ketcham Memorial Center,(812)636-4920,IN,47562,,38.841122,-86.982758
747,3518 S Shelby St,Jennifer Voss,Indianapolis,Long Term Care,Bethany Village,(317)783-4042,IN,46227,,39.7148005,-86.1405914
748,3530 S Shelby St,Gary Griffin,Indianapolis,Long Term Care,Bethany Village Assisted Living,(317)784-3066,IN,46227,,39.7139055,-86.1409935
755,3021 Stella Drive,Jamie Langhans,Greenwood,Long Term Care,Bickford Of Greenwood,(317)807-3077,IN,46143,,39.599793748902,-86.160028664764
767,155 E Burks Dr,Zachary Wilson,Bloomington,Long Term Care,Brickyard Healthcare - Bloomington Care Center,(812)332-4437,IN,47401,,39.166601650000004,-86.61138577617493
771,2860 Churchman Ave,Thomas Johnson,Indianapolis,Long Term Care,Brickyard Healthcare - Churchman Care Center,(317)787-3451,IN,46203,,39.73014665,-86.11212582499999
777,402 19Th Street,Julie Pennington,Tell City,Long Term Care,Brickyard Healthcare - Lincoln Hills Care Center,(812)547-3427,IN,47586,,37.9555811558576,-86.75529701474147
780,309 W Pike Ave,William Carr,Petersburg,Long Term Care,Brickyard Healthcare - Petersburg Care Center,(812)354-8833,IN,47567,,38.4508822,-87.2955687
784,811 E 12Th Street,Jennifer Neely,Mishawaka,Long Term Care,Brickyard Healthcare - Twelfth Street Care Center,(574)259-1917,IN,46544,,39.16874765,-86.52403294422268
788,4088 Frame Rd,Maribeth Donaldson,Newburgh,Long Term Care,Brickyard Healthcare - Woodlands Care Center,(812)853-9567,IN,47630,,37.9750973,-87.41271216469227
791,3100 Utica Sellersburg Road,Peter Hastings,Jeffersonville,Long Term Care,Bridgepointe Gardens,(812)818-1414,IN,47130,,38.35072184842407,-85.70170670730751
794,3802 Sare Rd,Michael Bolling,Bloomington,Long Term Care,Brookdale Bloomington,(812)330-0885,IN,47401,,39.1638815,-86.48055918031366
801,1111 Church Ave,Melissa Joffee,Jasper,Long Term Care,Brookside Village Inc,(812)634-7750,IN,47546,,38.375968337225125,-86.91357658706517
818,2770 S Adams Rd,Tamara Vaughn,Bloomington,Long Term Care,Cedar Creek Of Bloomington,(812)331-8153,IN,47403,,39.1370184,-86.55535621025135
819,3203 Moores Pike Road,,Bloomington,Long Term Care,Cedar Creek Of Bloomington Memory Care,(812)335-4655,IN,47401,,39.150471100000004,-86.49817635
821,1435 Christian Blvd,Jessica Lewis,Franklin,Long Term Care,Cedar Creek Of Franklin,(317)535-6550,IN,46131,,39.5384848,-86.0832703
822,3901 High Street Rd,Jason Wafford,Logansport,Long Term Care,Cedar Creek Of Logansport,(574)739-2134,IN,46947,,39.16458,-86.4807642611054
825,2288 Nicholas Ct,Katie Lucas,Seymour,Long Term Care,Cedar Creek Of Seymour,(812)523-8991,IN,47274,,38.9613882,-85.8458479
827,297 South 100 East,Yoko Swanson,Washington,Long Term Care,Cedar Creek Of Washington,(812)254-5230,IN,47501,,38.6570866,-87.17427222523051
831,10144 Warrick Trail,Kaylee Binkley,Newburgh,Long Term Care,Cedarhurst Of Newburgh,(812)518-0076,IN,47630,,37.9812594,-87.4355775
834,5311 Rosebud Lane,Goodwell Chavunduka,Newburgh,Long Term Care,Celebration Villa Of Newburgh,(812)479-5585,IN,47630,,37.9657287,-87.450144
836,4851 Tincher Rd,Tanequa Footman,Indianapolis,Long Term Care,Chalet Rehabilitation And Healthcare Center,(317)856-4851,IN,46221,,39.6936252,-86.2502610819527
840,4915 Charlestown Rd,Jesse Ray,New Albany,Long Term Care,Charlestown Place At New Albany,(812)945-5221,IN,47150,,38.3128127,-85.806094
844,44 Chateau Blvd,Annie Adams,Batesville,Long Term Care,Chateau Of Batesville,(812)932-8888,IN,47006,,39.2952961,-85.2008616
848,517 N Little League Blvd,Holly Northam,Clarksville,Long Term Care,Clark Rehabilitation And Skilled Nursing Center,(812)282-8406,IN,47129,,38.3051111,-85.757789
849,400 Hunter Station Road,Kathy Jones,Sellersburg,Long Term Care,Clarksville Senior Living Llc,(812)748-5258,IN,47172,,38.3825447,-85.7718947
855,119 N Indiana Ave,Jennifer Short,Crown Point,Long Term Care,Colonial Nursing Home,(219)663-2532,IN,46307,,39.16576135,-86.5260668057629
863,800 Freemason Parkway,William Pierce,Franklin,Long Term Care,Compass Park,(317)736-6141,IN,46131,,39.469960439145,-86.046008754212
866,510 W Medcalf Road,Charles Brazzell,Dale,Long Term Care,Core Of Dale,(812)937-7073,IN,47523,,38.16906715,-86.98942514999999
867,3177 Meridian Parke Dr,Angela Sortore,Greenwood,Long Term Care,Country Charm,(317)882-5455,IN,46142,,39.618019072155846,-86.15999561995558
877,1034 Crown Pointe Blvd,Jamie Smith,Greensburg,Long Term Care,Crown Pointe Senior Living Community,(812)662-8888,IN,47240,,39.324301228354,-85.468515345131
887,4255 Medwell Dr,Brandon Burns,Newburgh,Long Term Care,Cypress Grove Rehabilitation Center,(812)853-2993,IN,47630,,37.9725905,-87.43076534270834
889,1255 Demaree Road,Julia Berry,Greenwood,Long Term Care,Demaree Crossing Assisted Living And Memory Care,(317)316-8380,IN,46143,,39.58513118748391,-86.1494149743138
901,501 N 17Th Ave,David Benson,Beech Grove,Long Term Care,Envive Of Beech Grove,(317)786-2261,IN,46107,,39.7298057,-86.1016309
908,403 Bielby Rd,Keith Mckee,Lawrenceburg,Long Term Care,Envive Of Lawrenceburg,(812)537-1132,IN,47025,,39.1162972,-84.8837762
910,7524 E Jackson Street,Roberta Scott,Muncie,Long Term Care,Envive Of Muncie,(765)747-7820,IN,47302,,39.4486608,-85.1941296
916,3607 South Heirloom Drive,Nichole Mcnally,Bloomington,Long Term Care,Evergreen Village At Bloomington,(812)336-2718,IN,47401,,39.12764565,-86.55212599155541
918,2630 S Keystone Ave,Patrick Ngene,Indianapolis,Long Term Care,Fairway Village,(317)787-8951,IN,46203,,39.729844,-86.12122298470686
919,6510 U.S. 31 South,Timothy Cooper,Indianapolis,Long Term Care,Five Star Residences Of Banta Pointe,(317)783-4663,IN,46227,,39.67383705,-86.0188650253608
926,525 E Thompson Rd,Neha Patel,Indianapolis,Long Term Care,Forest Creek Village,(317)787-8253,IN,46227,,39.692640850000004,-86.1468884042614
930,1901 Taylor Rd,Rebecca Stenner,Columbus,Long Term Care,Four Seasons Retirement Center,(812)372-8481,IN,47203,,39.2181375,-85.8760549
931,1285 W Jefferson St,Jason Kennedy,Franklin,Long Term Care,Franklin Meadows,(317)736-9113,IN,46131,,39.4803398,-86.059996
932,1375 Nicole Drive,Jill Smith,Franklin,Long Term Care,Franklin Senior Living Llc,(463)724-2121,IN,46131,,39.535100781011444,-86.08256423769052
933,310 W Carlisle Street,Shannon Graves,Freelandville,Long Term Care,Freelandville Community Home,(812)328-2134,IN,47535,,38.867187595277,-87.308678657994
952,1151 S Hubert Circle West,Michelle Heacock,Martinsville,Long Term Care,Grand Valley Gardens Assisted Living Facility,(765)558-8200,IN,46151,,39.53832688547961,-86.47580275473196
953,621 Grand Valley Boulevard,Chelsea Frederick,Martinsville,Long Term Care,Grand Valley Health & Rehab,(765)342-7114,IN,46151,,39.416541112683255,-86.4070025817676
954,2339 S State Road 135,Thomas Turner Ii,Greenwood,Long Term Care,Grand Victorian Of Greenwood,(317)535-0422,IN,46143,,39.6648318,-86.12075652654892
959,3118 Green Valley Rd,Gregory Dattilo,New Albany,Long Term Care,Green Valley Care Center,(812)945-2341,IN,47150,,38.3247817,-85.83444541068664
962,200 Green Meadows Dr,Andrew Clark,Greenfield,Long Term Care,Greenfield Healthcare Center,(317)462-3311,IN,46140,,39.63263645,-86.11988842388108
964,937 Fry Rd,Dorian Mihay,Greenwood,Long Term Care,Greenwood Health And Living Community,(317)881-3535,IN,46142,,39.628088,-86.128999
965,377 Westridge Blvd,Linda Turner,Greenwood,Long Term Care,Greenwood Healthcare Center,(317)888-4948,IN,46142,,39.6182214,-86.14491105077889
966,1200 N State Road 135,Laura Dyer,Greenwood,Long Term Care,Greenwood Meadows,(317)300-2200,IN,46142,,39.633943764202,-86.15847328423
970,3800 Eli Place,Shawn Cates,Newburgh,Long Term Care,Hamilton Pointe Health And Rehab,(812)858-5300,IN,47630,,37.979496965134,-87.447197130897
973,966 N Wilson Rd,Brandy Royalty,Scottsburg,Long Term Care,Hampton Oaks Health Campus,(812)752-2694,IN,47170,,38.706267350000005,-85.79778623899828
981,871 Pacer Drive Nw,Ryan Morton,Corydon,Long Term Care,Harrison Springs Health Campus,(812)738-0317,IN,47112,,38.237937142049,-86.139615637562
984,7465 Madison Ave,Jakob Barbour,Indianapolis,Long Term Care,Hawthorne Healthcare Center,(317)788-3000,IN,46227,,39.65832665,-86.12377477222645
987,3043 North Lintel Drive,Todd Nowacki,Bloomington,Long Term Care,Hearthstone Health Campus,(812)333-7622,IN,47404,,39.2016577,-86.5885561
989,8601 South Shelby Street,Jan Caudill,Indianapolis,Long Term Care,Hellenic Senior Living Of Indianapolis,(317)885-4446,IN,46227,,39.50612745,-85.78855190261152
991,2632 Grant Line Road,Elsie Shoemaker,New Albany,Long Term Care,Hellenic Senior Living Of New Albany,(812)944-9048,IN,47150,,38.34366745,-85.81964118415449
996,281 S County Road 200 East,Stacey Ware,Connersville,Long Term Care,Heritage House Rehabilitation & Health Care Center,(765)825-2148,IN,47331,,39.6402008,-85.1371639
1002,4211 Grimm Road,Samuel Creel,Newburgh,Long Term Care,Heritage Woods Of Newburgh,(812)853-9810,IN,47630,,37.973599750000005,-87.43303484826566
1004,751 E Tamarack Trail,Kelly Duhaime,Bloomington,Long Term Care,Hi Jill's House Llc,(812)287-7962,IN,47408,,39.1924949,-86.5269001
1008,580 Lemley Street,Tracie Oldham,Franklin,Long Term Care,Hickory Creek At Franklin,(317)736-8214,IN,46131,,39.493210250000004,-86.06459505000001
1009,1620 N Lincoln St,Brooke Thies,Greensburg,Long Term Care,Hickory Creek At Greensburg,(812)663-7503,IN,47240,,38.11903385,-86.99666948679958
1011,1945 Cragmont St,Markietta Burns,Madison,Long Term Care,Hickory Creek At Madison,(812)273-4696,IN,47250,,38.76434988680276,-85.39663218655657
1018,203 Sparks Ave,Mark Bowman,Jeffersonville,Long Term Care,Hillcrest Village,(812)283-7918,IN,47130,,38.28184244006377,-85.74925254409095
1022,651 South State Street,Mark Gavorski,Franklin,Long Term Care,Homeview Center Of Franklin,(317)736-6414,IN,46131,,38.2472403,-85.75804
1028,501 S Murphy Ave,Manoj Berry,Brazil,Long Term Care,Hutsonwood At Brazil,(812)446-2636,IN,47834,,38.277682,-85.73759759411257
1037,240 Beechmont Dr,Rodney Jackson,Corydon,Long Term Care,Indian Creek Healthcare Center,(812)738-8127,IN,47112,,38.23348795,-86.13258875
1041,2564 Foxpointe Dr,Heather Angel,Columbus,Long Term Care,Keepsake Village Of Columbus,(812)372-0950,IN,47203,,39.224256579723,-85.870460636251
1051,545 W Moonglo Rd,Richey Barton,Scottsburg,Long Term Care,Lake Pointe Village,(812)752-3499,IN,47170,,38.707109141867264,-85.81552616378355
1062,326 Country Club Drive,Kimberly Povinelli,New Albany,Long Term Care,Lincoln Hills Of New Albany,(812)948-1311,IN,47150,,38.3034137,-85.82982113893726
1066,723 E Ramsey Rd,Khushali Shuh,Vincennes,Long Term Care,Lodge Of The Wabash,(812)882-8787,IN,47591,,38.6628848,-87.50016378373448
1075,2111 Norton Ln,Scott Swaby,Bedford,Long Term Care,Majestic Care Of Bedford,(812)277-3730,IN,47421,,38.85431925,-86.50213532475313
1076,1100 S Curry Pk,Warren Mccreery,Bloomington,Long Term Care,Majestic Care Of Bloomington,(812)339-1657,IN,47403,,39.1493693,-86.5825563
1086,5233 Rosebud Lane,Brandi Thompson,Newburgh,Long Term Care,Majestic Care Of Newburgh,(812)473-4761,IN,47630,,37.9657287,-87.450144
1090,8549 S Madison Ave,Brocton Bennett,Indianapolis,Long Term Care,Majestic Care Of Southport,(317)881-9164,IN,46227,,39.64238015,-86.11775728783033
1101,210 State Hwy 43,Sara Mitchell,Spencer,Long Term Care,Mccormick's Creek Rehabilitation And Healthcare,(812)829-3444,IN,47460,,39.2785499,-86.7219626
1104,200 Meadow Lake Dr,William Mccallum,Mooresville,Long Term Care,Meadow Lakes,(317)834-1791,IN,46158,,39.56988925,-86.37541110975124
1105,900 Anson St,Krista Smith,Salem,Long Term Care,Meadow View Health And Rehabilitation,(812)883-4681,IN,47167,,38.61441075,-86.09475225962069
1118,1630 S County Farm Rd,Hillary Corbitt,Warsaw,Long Term Care,Miller's Merry Manor,(574)267-8196,IN,46580,,39.450405,-86.5730759
1119,7440 N County Road 825 E,Alexa Robbins,Hope,Long Term Care,Miller's Merry Manor,(812)546-4416,IN,47246,,39.27704243996,-85.757265557631
1122,259 W Harrison St,Natalie Peterson,Mooresville,Long Term Care,Miller's Merry Manor,(317)831-6272,IN,46158,,39.2608882,-84.8207849
1126,24 Teke Burton Dr,Katherine Hignite Owens,Mitchell,Long Term Care,Mitchell Manor,(812)849-2221,IN,47446,,38.74116977925623,-86.49239059069237
1128,140 W Washington St,Phil Ford,Morgantown,Long Term Care,Morgantown Woods Of Journey,(812)597-4418,IN,46160,,39.37173835,-86.26249439608799
1129,950 N Lakeview Dr,Holly Witkemper,Greensburg,Long Term Care,Morning Breeze Retirement Community And Healthcare,(812)662-7778,IN,47240,,38.39432225567451,-86.70812358512542
1130,75 S Milford Dr,Tristan Pruitt,Franklin,Long Term Care,Morning Pointe Of Franklin,(317)736-4665,IN,46131,,39.48017035,-86.0270672014682
1138,10466 Pollack Ave,Ally Lopp,Newburgh,Long Term Care,Newburgh Health Care,(812)853-2931,IN,47630,,37.947667245669116,-87.43203431750449
1141,811 E Baseline Road,Mikayla Watkins,Evansville,Long Term Care,North River Health Campus,(812)867-7256,IN,47725,,38.12222294582438,-87.51038858523395
1149,1143 23Rd St,Mary Blocker,Tell City,Long Term Care,Oakwood Health Campus,(812)547-2333,IN,47586,,37.9554726,-86.7501095
1156,920 W Highway 46,Edward Hughes,Spencer,Long Term Care,Owen Valley Rehabilitation And Healthcare Center,(812)829-2331,IN,47460,,39.2886563,-86.7866467
1158,559 W Longest St,Lyndie Mcgraw,Paoli,Long Term Care,Paoli Health And Living Community,(812)723-2595,IN,47454,,38.567170169353794,-86.47451628747648
1168,607 Wilson Creek Rd,Lori Poe,Lawrenceburg,Long Term Care,Pine Knoll Assisted Living Center,(812)537-4422,IN,47025,,39.112349949999995,-84.8844189
1171,313 Poplar St,Devon Cram,Loogootee,Long Term Care,Poplar Care Strategies,(812)295-4433,IN,47553,,38.670171832794274,-86.91197094119077
1185,1309 E Grace St,Jillian Kutemeier,Rensselaer,Long Term Care,Rensselaer Care Center,(219)866-4181,IN,47978,,39.1725713,-86.51841389074048
1192,5911 State Road 46,Tonia Bough,Ellettsville,Long Term Care,Richland Bean Blossom Health Care Center,(812)876-6400,IN,47429,,39.22382075,-86.61218268077968
1194,1200 Whitlatch Way,Trina Johnson,Milan,Long Term Care,Ripley Crossing,(812)654-2231,IN,47031,,39.134133196281276,-85.13399267472433
1198,3400 Stocker Dr,Eric Ross,Evansville,Long Term Care,River Bend Nursing And Rehabilitation,(812)424-8100,IN,47720,,38.09541895,-87.5064895790891
1200,3001 Galaxy Dr,Jordan Shots,Evansville,Long Term Care,River Pointe Health Campus,(812)475-2822,IN,47715,,38.00412956898232,-87.48919253647553
1201,120 Presbyterian Ave,Rhonda Gibson,Madison,Long Term Care,River Terrace Health Campus,(812)265-0080,IN,47250,,38.73990614676659,-85.3898129231951
1203,2715 Charlestown Pike,Ricki Elston,Jeffersonville,Long Term Care,Riverbend,(812)280-0965,IN,47130,,38.38424146623974,-85.6873586747479
1204,4917 Grant Line Road,Mark Adkins Jr,New Albany,Long Term Care,Rivercrest Senior Living,(930)256-0240,IN,47150,,38.34366745,-85.81964118415449
1207,586 Eastern Blvd,Tina Martin,Clarksville,Long Term Care,Riverview Village,(812)282-6663,IN,47129,,38.2981188,-85.7607922
1215,7525 Rosegate Drive,Ann Kirstein,Indianapolis,Long Term Care,Rosegate Commons,(317)889-0100,IN,46237,,39.65769255,-86.0800536959153
1216,7510 Rosegate Dr,Tara Mcglothlin,Indianapolis,Long Term Care,Rosegate Village,(317)889-9300,IN,46237,,39.658553350000005,-86.08104026553349
1224,200 Connie Ave,Holly Thompson,Salem,Long Term Care,Salem Crossing,(812)883-1877,IN,47167,,38.614953,-86.11047082692306
1226,710 Sunrise Drive,Bailey Sherman,Ferdinand,Long Term Care,Scenic Hills At The Monastery,(812)504-2048,IN,47532,,38.166549925431454,-86.98046100170926
1228,7823 Old State Road 60,Maria Diaz,Sellersburg,Long Term Care,Sellersburg Healthcare Center,(812)246-4272,IN,47172,,38.37970340096348,-85.7643432941899
1231,2515 Newton St,Michael Meadows,Jasper,Long Term Care,Serenity Spring Senior Living At Northwood,(812)482-1722,IN,47547,,38.4112511,-86.9380104
1237,3500 Maple Ave,Cathy Macke,Terre Haute,Long Term Care,Signature Healthcare Of Terre Haute,(812)238-1555,IN,47804,,39.2448564,-86.5798856
1247,6996 South  Us421,Sharon Woods,Versailles,Long Term Care,Silver Memories Health Care,(812)689-6222,IN,47042,,38.972180448999,-85.313905300331
1248,2011 Chapa Street,Pamela Cole,Columbus,Long Term Care,Silver Oaks Health Campus,(812)373-0787,IN,47203,,39.1471955,-85.132969
1251,4904 War Admiral Drive,Sara Kelley,Indianapolis,Long Term Care,Southpointe Healthcare Center,(317)885-3333,IN,46237,,39.641052099999996,-86.08582421388405
1260,457 S Sr 145,Riley Widdifield,French Lick,Long Term Care,Springs Valley Meadows,(812)936-9991,IN,47432,,38.5499152,-86.6110761
1261,1400 Lammers Pike,Kevin Craig,Batesville,Long Term Care,St Andrews Health Campus,(812)934-5090,IN,47006,,39.29505611757487,-85.14123943662239
1263,3150 St Charles St,Jon Howard,Jasper,Long Term Care,St Charles Health Campus,(812)634-6570,IN,47546,,38.41548,-86.9458268
1269,363 South Fieldstone Blvd,Dawn Black,Bloomington,Long Term Care,Stonecroft Health Campus,(812)825-0551,IN,47403,,39.16449370922734,-86.60529925295671
1276,701 S Main St,Anastasia Key,Summitville,Long Term Care,Summit Health And Living,(765)203-2671,IN,46070,,39.18100645,-86.52645547483547
1280,1023 W Main St,Kyle Stout,Vevay,Long Term Care,Swiss Villa Nursing And Rehabilitation,(812)427-2803,IN,47043,,39.721363249999996,-86.0943069403638
1282,12802 East Us Hwy 50,Brandi Gladish,Loogootee,Long Term Care,Sycamore Care Strategies,(812)295-2101,IN,47553,,38.65426244219608,-87.0491245976553
1286,188 Thornton Rd,Theresa Adams,Hanover,Long Term Care,Thornton Terrace Health Campus,(812)866-8396,IN,47243,,38.7201654,-85.471392
1287,990 Progress Parkway,Crystal Werner,Shelbyville,Long Term Care,Timber Creek Village,(317)680-2500,IN,46176,,39.5025331,-85.7532587
1289,2909 Howard Dr,Beau Kellams,Jasper,Long Term Care,Timbers Of Jasper The,(812)482-6161,IN,47546,,38.4159208,-86.941986
1291,712 W 2Nd St,Wendy Broughton,Leavenworth,Long Term Care,Todd-Dickey Nursing And Rehabilitation,(812)739-2292,IN,47137,,39.1611945,-86.52508674749998
1298,4300 West Goeller Blvd,Stacey Gallardo,Columbus,Long Term Care,Traditions Of Columbus,(812)552-0500,IN,47201,,39.198793570315,-85.968613107357
1307,1380 E County Line Rd S,Benjy Grzych,Indianapolis,Long Term Care,University Heights Health And Living Community,(317)885-7050,IN,46227,,39.645856699999996,-86.18312907075332
1316,1 Silvercrest Drive,Stephanie Miller,New Albany,Long Term Care,Villages At Historic Silvercrest The,(812)542-6720,IN,47150,,38.294948149999996,-85.84708729923767
1317,1694 Troy Road,Sarah Wall,Washington,Long Term Care,"Villages At Oak Ridge, The",(812)254-3800,IN,47501,,38.63192635,-87.16403005784696
1319,1683 Community Way,Teresa Collins,Greenfield,Long Term Care,Vita Of Greenfield,(463)290-8001,IN,46140,,39.61160845,-86.10476428124069
1321,532 Country Gate Drive,Nicole Holder,New Whiteland,Long Term Care,Vita Of New Whiteland,(317)463-7155,IN,46184,,39.5701655851069,-86.09084087966022
1322,1971 State Street,Kristen Chalou,Columbus,Long Term Care,Vivera Senior Living Of Columbus,(812)376-0698,IN,47201,,39.2006014,-85.9100843
1323,2105 Hamburg Pike,Jenny Brown,Jeffersonville,Long Term Care,Vivera Senior Living Of Jeffersonville,(812)577-8542,IN,47130,,38.29647369985342,-85.74666729790584
1325,2216 N Riley Hwy,Teresa Glidden,Shelbyville,Long Term Care,Walker Place,(317)392-3370,IN,46176,,39.554332,-85.775758
1328,8201 W Washington St,Keira Gilmore,Indianapolis,Long Term Care,Washington Healthcare Center,(317)244-6848,IN,46231,,38.5612578,-86.1179768
1332,958 E Hwy 46,Jalena Ball,Batesville,Long Term Care,"Waters Of Batesville, The",(812)934-2436,IN,47006,,39.300601,-85.2111736
1335,950 Cross Ave,Melinda Alcorn,Madison,Long Term Care,"Waters Of Clifty Falls, The",(812)273-4640,IN,47250,,38.76462750708045,-85.40736659184891
1338,12803 Lenover St,Vicki Mcguire,Dillsboro,Long Term Care,"Waters Of Dillsboro-Ross Manor, The",(812)432-5226,IN,47018,,39.01877803976409,-85.05504256584615
1341,1002 Sister Barbara Way,Meredith Eder,Georgetown,Long Term Care,"Waters Of Georgetown, The",(812)940-5100,IN,47122,,38.297432733554,-85.956768263796
1345,1712 Leland Dr,Rebecca Lucas,Huntingburg,Long Term Care,"Waters Of Huntingburg, The",(812)683-4090,IN,47542,,38.3121466,-86.9603848
1347,3895 S Keystone Ave,Alicia Harris,Indianapolis,Long Term Care,"Waters Of Indianapolis, The",(317)787-5364,IN,46227,,39.709964299999996,-86.11945734575922
1359,1350 N Todd Dr,Ashley Bowling,Scottsburg,Long Term Care,"Waters Of Scottsburg, The",(812)752-5663,IN,47170,,38.70163078672375,-85.78615083521557
1360,505 W Wolfe St,Sally Robertson,Sullivan,Long Term Care,"Waters Of Sullivan Nursing Facility, The",(812)268-6361,IN,47882,,39.268655,-86.8594521
1366,101 Potters Ln,Alicia Wells,Clarksville,Long Term Care,Wedgewood Healthcare Center,(812)948-0808,IN,47129,,38.3272265,-85.7843218
1374,7212 Us Hwy 31 S,Keisha Dube,Indianapolis,Long Term Care,Wellington At Southport The,(317)889-9822,IN,46227,,39.660850100000005,-86.14600749558207
1382,2210 Greentree N,April Haggerty,Clarksville,Long Term Care,Westminster Village Kentuckiana,(812)282-5911,IN,47129,,38.332365444410364,-85.76755964075602
1388,1510 Clinic Dr,Randy Padgett,Bedford,Long Term Care,Westview Nursing And Rehabilitation Center,(812)279-4494,IN,47421,,38.86190725020221,-86.5143704741902
1390,3710 Kenny Simpson Ln,Tangie Jenkins,Bedford,Long Term Care,White River Lodge,(812)275-7006,IN,47421,,38.836301550017545,-86.50774293165188
1394,3550 Central Ave,Alisha Miller,Columbus,Long Term Care,Willow Crossing Health & Rehabilitation Center,(812)379-9669,IN,47203,,39.20194880807954,-85.90590501464479
1396,410 Park Rd,Kelsey Meal,Greensburg,Long Term Care,Willows Of Greensburg,(812)663-7543,IN,47240,,39.151367300000004,-86.52856805
1400,2700 Waters Edge Pkwy,Steven Brian,Jeffersonville,Long Term Care,Windsor Ridge,(812)284-4336,IN,47130,,38.33879289331776,-85.68834093318428
1408,1325 Rockport Rd,Jennie Deyne,Boonville,Long Term Care,Woodmont Health Campus,(812)897-4114,IN,47601,,38.0385018,-87.2579482
1410,10799 Alliance Dr,Sheryl Morning,Camby,Long Term Care,Worthington Place,(317)856-6224,IN,46113,,39.63766553124861,-86.33089723336028
1419,3525 E Hanna Ave,Deborah Baah,Indianapolis,Non Freestanding Residential Care,Altenheim Health & Living Community,(317)788-4261,IN,46237,,39.7073987,-86.10508868971004
1423,410 W Lagrange Rd,Jay Nowlin,Hanover,Non Freestanding Residential Care,Aperion Care Hanover,(812)866-2625,IN,47243,,38.71526281929722,-85.47623710149593
1429,2200 N Riley Hwy,Zachary Simpson,Shelbyville,Non Freestanding Residential Care,Ashford Place Health Campus,(317)398-8422,IN,46176,,39.554332,-85.775758
1430,2320 N Montgomery Road,Mikayla Schneider,Greensburg,Non Freestanding Residential Care,Aspen Place Health Campus,(812)527-2222,IN,47240,,39.3579595,-85.470041
1438,1111 Church Ave,Melissa Joffee,Jasper,Non Freestanding Residential Care,Brookside Village Inc,(812)634-7750,IN,47546,,38.375968337225125,-86.91357658706517
1443,4915 Charlestown Rd,Jesse Ray,New Albany,Non Freestanding Residential Care,Charlestown Place At New Albany,(812)945-5221,IN,47150,,38.3128127,-85.806094
1455,501 N 17Th Ave,David Benson,Beech Grove,Non Freestanding Residential Care,Envive Of Beech Grove,(317)786-2261,IN,46107,,39.70450115,-86.0871921670398
1460,1901 Taylor Rd,Rebecca Stenner,Columbus,Non Freestanding Residential Care,Four Seasons Retirement Center,(812)372-8481,IN,47203,,39.2181375,-85.8760549
1468,3800 Eli Place,Shawn Cates,Newburgh,Non Freestanding Residential Care,Hamilton Pointe Health And Rehab,(812)858-5300,IN,47630,,37.979496965134,-87.447197130897
1470,966 N Wilson Rd,Brandy Royalty,Scottsburg,Non Freestanding Residential Care,Hampton Oaks Health Campus,(812)752-2694,IN,47170,,38.7062674,-85.7977862
1472,871 Pacer Drive Nw,Ryan Morton,Corydon,Non Freestanding Residential Care,Harrison Springs Health Campus,(812)738-0317,IN,47112,,38.237937142049,-86.139615637562
1474,3043 North Lintel Drive,Todd Nowacki,Bloomington,Non Freestanding Residential Care,Hearthstone Health Campus,(812)333-7622,IN,47404,,39.2016577,-86.5885561
1486,723 E Ramsey Rd,Khushali Shuh,Vincennes,Non Freestanding Residential Care,Lodge Of The Wabash,(812)882-8787,IN,47591,,38.6628848,-87.50016378373448
1491,200 Meadow Lake Dr,William Mccallum,Mooresville,Non Freestanding Residential Care,Meadow Lakes,(317)834-1791,IN,46158,,39.56988925,-86.37541110975124
1497,950 N Lakeview Dr,Holly Witkemper,Greensburg,Non Freestanding Residential Care,Morning Breeze Retirement Community And Healthcare,(812)662-7778,IN,47240,,38.39432225567451,-86.70812358512542
1499,811 E Baseline Road,Mikayla Watkins,Evansville,Non Freestanding Residential Care,North River Health Campus,(812)867-7256,IN,47725,,38.12222294582438,-87.51038858523395
1501,1143 23Rd St,Mary Blocker,Tell City,Non Freestanding Residential Care,Oakwood Health Campus,(812)547-2333,IN,47586,,37.94967519248875,-86.75008181104012
1504,1070 W Jefferson St,Shannon Logan,Franklin,Non Freestanding Residential Care,Otterbein Franklin Seniorlife Comm Res & Com Care,(317)736-7185,IN,46131,,39.479782,-86.0723797
1515,1200 Whitlatch Way,Trina Johnson,Milan,Non Freestanding Residential Care,Ripley Crossing,(812)654-2231,IN,47031,,39.134133196281276,-85.13399267472433
1516,3001 Galaxy Dr,Jordan Shots,Evansville,Non Freestanding Residential Care,River Pointe Health Campus,(812)475-2822,IN,47715,,38.00412956898232,-87.48919253647553
1517,120 Presbyterian Ave,Rhonda Gibson,Madison,Non Freestanding Residential Care,River Terrace Health Campus,(812)265-0080,IN,47250,,38.73990614676659,-85.3898129231951
1522,710 Sunrise Drive,Bailey Sherman,Ferdinand,Non Freestanding Residential Care,Scenic Hills At The Monastery,(812)504-2048,IN,47532,,38.166549925431454,-86.98046100170926
1523,2515 Newton St,Michael Meadows,Jasper,Non Freestanding Residential Care,Serenity Spring Senior Living At Northwood,(812)482-1722,IN,47547,,38.3903106415483,-86.93179686691225
1524,2011 Chapa Street,Pamela Cole,Columbus,Non Freestanding Residential Care,Silver Oaks Health Campus,(812)373-0787,IN,47203,,39.1471955,-85.132969
1529,302 North Johnson Road,Natalie Padgett,Mooresville,Non Freestanding Residential Care,"Springs Of Mooresville, The",(317)831-9033,IN,46158,,39.6172926,-86.18878053525285
1531,1400 Lammers Pike,Kevin Craig,Batesville,Non Freestanding Residential Care,St Andrews Health Campus,(812)934-5090,IN,47006,,39.29505611757487,-85.14123943662239
1533,3150 St Charles St,Jon Howard,Jasper,Non Freestanding Residential Care,St Charles Health Campus,(812)634-6570,IN,47546,,38.41548,-86.9458268
1536,363 South Fieldstone Blvd,Dawn Black,Bloomington,Non Freestanding Residential Care,Stonecroft Health Campus,(812)825-0551,IN,47403,,39.16449370922734,-86.60529925295671
1539,188 Thornton Rd,Theresa Adams,Hanover,Non Freestanding Residential Care,Thornton Terrace Health Campus,(812)866-8396,IN,47243,,38.7201654,-85.471392
1543,1 Silvercrest Drive,Stephanie Miller,New Albany,Non Freestanding Residential Care,Villages At Historic Silvercrest The,(812)542-6720,IN,47150,,38.294948149999996,-85.84708729923767
1544,1694 Troy Road,Sarah Wall,Washington,Non Freestanding Residential Care,"Villages At Oak Ridge, The",(812)254-3800,IN,47501,,38.63192635,-87.16403005784696
1547,1002 Sister Barbara Way,Meredith Eder,Georgetown,Non Freestanding Residential Care,"Waters Of Georgetown, The",(812)940-5100,IN,47122,,38.297432733554,-85.956768263796
1561,2210 Greentree N,April Haggerty,Clarksville,Non Freestanding Residential Care,Westminster Village Kentuckiana,(812)282-5911,IN,47129,,38.332365444410364,-85.76755964075602
1565,3710 Kenny Simpson Ln,Tangie Jenkins,Bedford,Non Freestanding Residential Care,White River Lodge,(812)275-7006,IN,47421,,38.836301550017545,-86.50774293165188
1567,1325 Rockport Rd,Jennie Deyne,Boonville,Non Freestanding Residential Care,Woodmont Health Campus,(812)897-4114,IN,47601,,38.0385018,-87.2579482
1569,445 S. Landmark Avenue,,Bloomington,Outpatient Physical Therapy,"Bloomington Advanced Surgery Center, Llc",,IN,47403,,39.1255543,-86.537084
1570,1020 C 11Th St,Deborah Reed,Tell City,Outpatient Physical Therapy,Advanced Rehabilitation Inc,(812)547-7770,IN,47586,,37.9556887,-86.7656721
1572,"225 W 41St Street, Suite C",,Jasper,Outpatient Physical Therapy,Advanced Rehabilitation Inc,(812) 482-7755,IN,47546,,38.427667,-86.9386779
1573,"5 E Christmas Blvd, Ste D",,Santa Claus,Outpatient Physical Therapy,Advanced Rehabilitation Inc,,IN,47579,,38.1060086,-86.91643
1586,5506 Highway 62,,Jeffersonville,Outpatient Physical Therapy,Pr Fresenius Kidney Care,(262)901-0505,IN,47130,,38.3576848,-85.70114843542041
1589,3215 E Thompson Rd,,Indianapolis,Outpatient Physical Therapy,Easter Seals Crossroads- South,(317) 782-8888,IN,46227,,39.6609666,-86.11056927183745
1590,3701 Bellemeade Avenue,Kelly Schneider,Evansville,Outpatient Physical Therapy,"Easter Seals Rehabilitation Center, Inc",(812)479-1411,IN,47714,,37.96712759835001,-87.46130728508615
1598,4812 Hamburg Pike,Anne Kelly Kennedy,Jeffersonville,Outpatient Physical Therapy,Frazier So Indiana Ymca,(812)282-4257,IN,47130,,38.29647369985342,-85.74666729790584
1602,737 West Green Meadows Drive,Largo@Ihtsc.Com,Greenfield,Outpatient Physical Therapy,Hand Rehabilitation Center Of Indiana The,(317) 875-9105,IN,46140,,39.63263645,-86.11988842388108
1603,"8820 South Meridian St, Suite 235",Nancy Cannon,Indianapolis,Outpatient Physical Therapy,Hand Rehabilitation Center Of Indiana The,(317) 396-2925,IN,46217,,39.6380449,-86.1593523416269
1607,1420 St Mary Circle,,Hobart,Outpatient Physical Therapy,Hts Outpatient Therapy Services At Hobart,(219)945-3196,IN,46342,,39.7509848,-85.97042341796117
1610,"7855 S Emerson Ave, Suite W",Ken Johnson,Indianapolis,Outpatient Physical Therapy,Indiana Physical Therapy,(317)889-5340,IN,46237,,39.653025150000005,-86.08168085816152
1612,"7015 Kentucky Avenue, Suite 107",Zachary Huey,Camby,Outpatient Physical Therapy,Indiana Physical Therapy,(317) 821-7101,IN,46113,,39.6609959,-86.31020665507718
1626,2904 Wal Mart Dr,Andrew L Vogle,Huntington,Outpatient Physical Therapy,Indiana Physical Therapy Inc,(260) 224-6686,IN,46750,,39.65748,-86.11463746982821
1631,2770 S Adams St,,Bloomington,Outpatient Physical Therapy,"Legacy Health Care Services, Inc",(812)323-4661,IN,47403,,39.1370184,-86.5553562
1632,3008 Shawnee Drive,,Bedford,Outpatient Physical Therapy,"Legacy Health Care Services, Inc",(812) 277-9727,IN,47421,,38.84956213817752,-86.51369474163806
1635,3211 East Moores Pike,,Bloomington,Outpatient Physical Therapy,Legacy Healthcare Services Inc,,IN,47401,,39.1545658,-86.4925423101081
1638,3660 Central Avenue,,Columbus,Outpatient Physical Therapy,Legacy Healthcare Services Inc,,IN,47203,,39.20194880807954,-85.90590501464479
1639,4895 Pine Ridge Drive,Stephanie Bulgarino,Columbus,Outpatient Physical Therapy,Legacy Healthcare Services Inc,(812) 342-2148,IN,47201,,39.19625300101603,-85.97418892830683
1649,500 College Avenue,,Terre Haute,Outpatient Physical Therapy,Legacy Healthcare Services Inc,,IN,47802,,39.1126865,-84.87632477223664
1658,1435 Christian Blvd.,Heidi Napier,Franklin,Outpatient Physical Therapy,"Legacy Healthcare Services, Inc",(317)859-2195,IN,46131,,39.5384848,-86.0832703
1659,10799 Alliance Dr,,Camby,Outpatient Physical Therapy,"Legacy Healthcare Services, Inc",(317) 821-0444,IN,46113,,39.63766553124861,-86.33089723336028
1660,4895 Pine Ridge Drive,Rayann Capps,Columbus,Outpatient Physical Therapy,"Legacy Healthcare Services, Inc",(812) 342-3098,IN,47201,,39.19625300101603,-85.97418892830683
1661,1473 E Mckay Rd #102,Lora Alonzo,Shelbyville,Outpatient Physical Therapy,"Legacy Healthcare Services, Inc",(317) 604-5920,IN,46176,,39.504490333078,-85.755888421085
1662,2216 N Riley Hwy,"Lora Alonza, Cota",Shelbyville,Outpatient Physical Therapy,"Legacy Healthcare Services, Inc",(317) 851-9899,IN,46176,,39.554332,-85.775758
1663,9800 Outer Lincoln Ave,,Newburgh,Outpatient Physical Therapy,"Legacy Healthcare Services, Inc",(812)518-9386,IN,47630,,37.96964825,-87.3332678
1664,5050 Lincoln Ave,,Evansville,Outpatient Physical Therapy,"Legacy Healthcare Services, Inc",,IN,47715,,37.96937269052622,-87.4685829602766
1665,4200 Wyntree Dr,,Newburgh,Outpatient Physical Therapy,"Legacy Healthcare Services, Inc",,IN,47630,,37.974296344696,-87.396799894706
1666,5311 Rosebud Lane,,Newburgh,Outpatient Physical Therapy,"Legacy Healthcare Services, Inc",,IN,47630,,37.9657287,-87.450144
1669,2857 Charlestown Rd Ste 200,Roy Woolbright,New Albany,Outpatient Physical Therapy,New Horizons Physiclal Therapy Limited Partnership,(812)948-2947,IN,47150,,38.330574573871,-85.79968506091
1670,2760 Jeffersonville Centre Way,,Jeffersonville,Outpatient Physical Therapy,New Horizons Physiclal Therapy,(812) 288-8835,IN,47130,,38.277682,-85.73759759411257
1688,930 E Barachel Lane Suite 400,Belinda J Hays,Greensburg,Outpatient Physical Therapy,Progressive Physical Therapy Pc Greensburg,(812) 663-5072,IN,47240,,39.351415783208,-85.474136997026
1699,1030 E  County Line Road,Emily Wogtech,Indianapolis,Outpatient Physical Therapy,Select Physical Therapy,(317)887-1121,IN,46227,,39.6358467,-86.14014490046401
1701,10701 Alliance Drive Suite D,,Camby,Outpatient Physical Therapy,Physiotherapy Associates,(317) 821-3740,IN,46113,,39.63766553124861,-86.33089723336028
1706,3075 Middle Road Ste B,Katie Finke,Columbus,Outpatient Physical Therapy,Select Physical Therapy,(812)372-7023,IN,47203,,39.221857150000005,-85.88659395340694
1707,1130 West Jefferson St Ste A,Danielle Johnson,Franklin,Outpatient Physical Therapy,Select Physical Therapy,(317)736-0660,IN,46131,,38.24945855,-85.7700355140849
1708,2675 Foxpointe Dr,,Columbus,Outpatient Physical Therapy,Select Physical Therapy,(812) 378-2185,IN,47203,,39.225312760125,-85.870290949431
1711,2564 Fox Pointe Dr,,Columbus,Outpatient Physical Therapy,Select Rehabilitaton Llc,(812)372-0950,IN,47203,,39.22482075,-85.86783458823291
1725,2662 Willow Glen Circle,Janea Reaves,Indianapolis,Personal Care Service Agency,1610 Joyful Care Services Llc,(317)702-1492,IN,46229,,39.7102342,-86.1168945
1726,2662 Willow Glen Circle,Jermaine Reaves,Indianapolis,Personal Care Service Agency,1630 Serene Care Solutions Llc,(317)441-7983,IN,46229,,39.7102342,-86.1168945
1743,3406 Blackforest Lane,Shanjae Gilbert,Indianapolis,Personal Care Service Agency,4 U Personal Care Llc,(317)383-6048,IN,46239,,39.719241499999995,-86.02080287768817
1749,"5251 S East Street, Ste 13",Riona Pruitt,Indianapolis,Personal Care Service Agency,831 Home Care Llc,(317)628-6208,IN,46227,,39.689875,-86.14809385839963
1750,4232 Londonderry Drive,Atta Atiya,Indianapolis,Personal Care Service Agency,A & A Caregivers Llc,(567)328-8045,IN,46221,,39.7014724,-86.2435651
1762,2336 Riviera Place,Chelsea Schwartz,Greenwd,Personal Care Service Agency,A Caring Hand Home Care Llc,(317)642-3844,IN,46143,,39.621721761359,-86.055527078975
1766,3336 Spring Wind Ln,Angela Jenkins,Indianapolis,Personal Care Service Agency,A Comfortable Time Loving Home Care Llc,(317)665-5164,IN,46239,,39.719957449999995,-86.02110581707974
1799,8147 Chesterhill Ln,Damiya Driver,Indianapolis,Personal Care Service Agency,A Miracle Homecare Llc,(317)777-9681,IN,46239,,39.74161065,-86.02286547109826
1800,2835 Wolfgang Way,Latoya Smith,Indianapolis,Personal Care Service Agency,A Miracle In Care Personal Services Llc,(317)384-5032,IN,46239,,39.728664550000005,-86.02527829102024
1810,9636 Piper Lake Drive,Shaleea Mason,Indianapolis,Personal Care Service Agency,"A Radiance Homecare, Llc",(317)640-5072,IN,46239,,39.75706725,-85.9968135314435
1813,736 Sunridge Court,Alison Mcallister,Indianapolis,Personal Care Service Agency,A Right On Time Homecare Llc,(317)332-2021,IN,46239,,39.75909285,-85.97281859322577
1820,803 Treyburn Lakes Way,Asya Barnett,Indianapolis,Personal Care Service Agency,A Step Ahead Personal Care Llc,(317)681-2689,IN,46239,,39.75883035,-85.99399774599607
1828,5211 Hidden Ridge Ct,Kimberely Hill,Indianapolis,Personal Care Service Agency,A Touch Of Patience Home Care Llc,(317)406-1372,IN,46221,,39.67158825,-86.24946528031779
1830,5728 S Emerson Ave,Rianna Slaughter,Indianapolis,Personal Care Service Agency,A Touch With Love Llc,(317)200-9642,IN,46237,,39.6843563,-86.08370464969539
1838,221 Switchgrass Lane,La Tone Thomas,New Whiteland,Personal Care Service Agency,A&L Home Cares Services Llc,(260)508-9345,IN,46184,,39.6162869,-86.19329376773743
1853,7834 Lofton Court,Towmara Butler,Indianapolis,Personal Care Service Agency,Able Guardians Llc,(317)446-6884,IN,46239,,39.7449275,-86.0285484703015
1859,7426 Hillway Drive,Taisha Nelson,Camby,Personal Care Service Agency,Above And Beyond Llc,(317)294-9797,IN,46113,,39.65102787791687,-86.30574861380005
1860,2456 Summerwood Ln,Denicka Thomas,Greenwood,Personal Care Service Agency,Above And Beyond Quality Care Llc,(765)398-1212,IN,46143,,39.5812667,-86.1065302
1867,4937 W Jamestown Trce,Erica Black,New Palestine,Personal Care Service Agency,Absolute Love Home Care Llc,(317)403-5018,IN,46163,,39.76217311668005,-85.89418097541369
1869,13313 N Etna Green Drive,Lanetia Wooldridge,Camby,Personal Care Service Agency,Abundance Home Care Services Llc,(317)319-8092,IN,46113,,39.63263645,-86.11988842388108
1872,1187 Lakeshore Drive,Cherelle Pruitt,Greenwood,Personal Care Service Agency,Abundance Of Love Homecare Llc,(463)246-4796,IN,46143,,39.58640690592541,-86.13836564634006
1882,4692 Duffy Road,Debra Baker,Floyds Knobs,Personal Care Service Agency,Accessicare Llc,(812)725-3843,IN,47119,,38.30938306738414,-85.89803787928712
1899,6745 Gray Rd Suite K,India Lewis,Indianapolis,Personal Care Service Agency,Adequate Home Care Llc,(317)731-3738,IN,46237,,39.6665064,-86.0962262502155
1931,8063 Madison Ave,Charmaine Smith,Indianapolis,Personal Care Service Agency,Ageless Reflections Personal Care Services Llc,(872)333-4021,IN,46227,,39.66975170977684,-86.12875464007526
1935,41 B W Brookeville Road,Wayne Todd Clark,Fountaintown,Personal Care Service Agency,Aging In Style Llc,(317)629-2373,IN,46130,,39.74104755,-85.98595975
1948,5426 Snap Dragon Lane Apt 4,Alycia Clay,Indianapolis,Personal Care Service Agency,All Around Clay Transportation Llc,(317)286-0616,IN,46203,,39.71539455,-86.07454300094733
1957,150 Diplomat Ct # 5,Donnetta Nielson,Beech Grove,Personal Care Service Agency,All Needs Homecare,(317)864-6710,IN,46107,,39.71307795,-86.08025727340265
1970,6200 E Hwy 62 Ste 650,Louis Tapia,Jeffersonville,Personal Care Service Agency,Allpro Staffnet Limited-Liability Company,(615)848-1377,IN,47130,,38.19041377263134,-86.33244857084529
1974,3259 E Hazelwood Dr,Michelle Sievers,Vincennes,Personal Care Service Agency,Ally Personal Care Llc,(812)396-0544,IN,47591,,38.66246200329877,-87.47890697576092
1982,8020 Yarmouth Way,Termera Alsum,Indianapolis,Personal Care Service Agency,Alsum Wings Personal Service Agency Llc,(817)841-9524,IN,46239,,39.704246600000005,-86.02487420514751
1983,1010 Ruby Creek Drive,Tiffany Norris,Ellettsville,Personal Care Service Agency,Alternative Care Solutions Llc,(812)671-0247,IN,47429,,38.325588800000006,-85.69400982022366
1988,2045 South Bend Avenue,Michael Wynne,South Bend,Personal Care Service Agency,Altra Homecare Of South Bend,(574)208-5213,IN,46637,,39.7420118,-86.05319645563273
1993,3338 Brandenburg Blvd,Taree Vinson,Indianapolis,Personal Care Service Agency,Always Available Family Homecare Llc,(317)444-0785,IN,46239,,39.7199267,-86.02934192647625
2011,13923 N Honey Creek Lane East,Balikis Plus,Camby,Personal Care Service Agency,American First Mercy Care Llc,(832)744-4092,IN,46113,,39.63107125514218,-86.30363360216106
2014,10853 Midnight Dr,Kyah Gaines,Indianapolis,Personal Care Service Agency,Amours Helping Hands Home Care Services Llc,(213)716-7944,IN,46239,,39.76159005,-85.97290944634683
2020,11712 Tillage Rd,Sheila Beeler,Indianapolis,Personal Care Service Agency,Anchor Of Life Llc,(317)657-0956,IN,46239,,39.75912045,-85.9573281169956
2026,5319 Montavia Lane,Miranda Sturgill,Indianapolis,Personal Care Service Agency,Anew Life Solutions Llc,(317)868-6094,IN,46239,,39.69098015,-86.02917551607601
2027,2515 S Carlota Dr,Nahomie Duquene,New Palestine,Personal Care Service Agency,Angel At Your Door Llc,(317)378-0811,IN,46163,,38.29765982122596,-85.69279498641501
2032,7713 Belmac Lane,Chibuzo Micheal,Camby,Personal Care Service Agency,Angel Home Care Services Llc,(317)515-2011,IN,46113,,39.6513405,-86.30804345
2035,6817 Ridge Vale Pl 1A,Angel Hill,Indianapolis,Personal Care Service Agency,Angelas Caring And Loving Home Care Llc,(317)658-1575,IN,46237,,39.6684233,-86.07659467825752
2037,4901 Shakamak Court,Shamika Buchanan,Indianapolis,Personal Care Service Agency,Angelic Hearts Home Care,(317)550-0072,IN,46239,,39.69795705,-85.98528105
2046,5401 East Street Suite 113,Keyana Williams,Indianapolis,Personal Care Service Agency,Angels Of Hope Home Care Llc,(317)974-9600,IN,46227,,39.6886668,-86.14831742337589
2061,7708 Gold Rush Drive,Annie Gibson,Camby,Personal Care Service Agency,Annie Homecare Services Llc,(317)674-6515,IN,46113,,39.651382,-86.31131802509276
2073,2246 Harlan Street,Porsha Harris,Indianapolis,Personal Care Service Agency,Aprommise Home Care Llc,(317)694-9790,IN,46203,,39.73662635,-86.12425426267606
2085,10041 Ironway Drive,Janekka Taylor,Indianapolis,Personal Care Service Agency,Arsell Home Care Llc,(317)724-9260,IN,46239,,39.7591834,-85.98852741543313
2088,6707 Panther Way,Alice Uwizeyimana,Indianapolis,Personal Care Service Agency,Asantecare Llc,(317)800-7476,IN,46237,,39.6641104,-86.05009562884311
2107,112 N Walnut Street Suite 500,Tuesday Ingram,Bloomington,Personal Care Service Agency,Assisting Your Loved Ones Homecare Llc,(317)282-7372,IN,47404,,39.1706722,-86.53313597059369
2110,7243 Madison Village East Drive,Breanna Woods,Indianapolis,Personal Care Service Agency,Assuring Quality Living Homecare Services Llc,(317)728-4475,IN,46227,,39.661547385357196,-86.12737089261249
2140,1222 Rotherham Lane,Theresa Barr,Beech Grove,Personal Care Service Agency,Barr Best Home Care Llc,(463)336-2644,IN,46107,,39.7091314,-86.096567
2155,9664 Gull Lake Dr,Lashanna Thompson,Indianapolis,Personal Care Service Agency,Bee The Light Homecare Llc,(317)250-9829,IN,46239,,39.757881299999994,-85.99605545
2159,3306 Corey Drive,Belinda Jones,Indianapolis,Personal Care Service Agency,Belindas Quality Care Llc,(317)225-8566,IN,46227,,39.6511653,-86.1094642127162
2170,8724 Shelby Street Unit A,Patricia Ludlow,Indianapolis,Personal Care Service Agency,Best Love Home Care Llc,(317)464-0411,IN,46227,,39.6389945,-86.13989356944157
2181,928 Garrison Drive,Jaskamal Sahi,Greenwood,Personal Care Service Agency,Better Homecare Services Llc,(732)895-9902,IN,46143,,39.588268022232,-86.126858998758
2189,5391 Misthaven Ln,Linda Dadzie,Greenwood,Personal Care Service Agency,Beyond Best Care Llc,(812)841-4447,IN,46143,,39.597676181753,-86.203891247423
2214,641 Cynthia Ln,Kimberly Mcdowell Rutherford,New Whiteland,Personal Care Service Agency,Blessing & Grace Home Care Llc,(317)993-4900,IN,46184,,39.540054081708,-86.099905616366
2219,6060 Brockworth Dr Apt D,Janis White,Indianapolis,Personal Care Service Agency,Blessing Of Hearts Llc,(317)748-8755,IN,46203,,39.7205738,-86.06200812609424
2235,405 N Capitol Ave Ste 207,Tammy Seitz,Corydon,Personal Care Service Agency,Blue River Services Inc,(812)738-2018,IN,47112,,38.211415192495465,-86.12633941996033
2251,4763 Rosebud Lane,Cherrie Bonham,Newburgh,Personal Care Service Agency,Bridges Of Indiana Inc,(812)475-8843,IN,47630,,37.9657287,-87.450144
2253,5214 S East St Ste D2,Catrina Anderson,Indianapolis,Personal Care Service Agency,"Bridges To Continuous Home Care, Llc",(463)221-2613,IN,46227,,39.69134765,-86.14954695
2260,"1201 Indiana Avenue, # 1012",Olusegun Ojewole,Indianapolis,Personal Care Service Agency,Brighter Dawn Llc,(662)801-5993,IN,46202,,39.6459777,-85.1331513
2266,8101 Trail Stay Drive,Brooke Miles,Camby,Personal Care Service Agency,Brighter Way Care Llc,(317)315-9653,IN,46113,,39.645578400000005,-86.30682576382009
2273,1535 Brookite Court Apt 10,Dominique Woods,Greenwood,Personal Care Service Agency,Brightwell Personal Care Llc,(910)929-0676,IN,46143,,39.64355455,-86.3319121
2274,8915 South Keystone Suite I,Bosede Acquaye,Indianapolis,Personal Care Service Agency,Brigid Homecare Llc,(317)362-7883,IN,46227,,39.6368024,-86.12078560662343
2282,10544 Dunes Court,Erika Burton,Indianapolis,Personal Care Service Agency,By Grace In-Home Care Llc,(317)245-7033,IN,46239,,39.69999075,-85.97862580540803
2303,3012 E 56Th Street South Drive,Shvonne Watson,Indianapolis,Personal Care Service Agency,Care Access Group Inc,(317)213-7975,IN,46220,,39.657506600000005,-86.11315043398601
2314,8131 Kennedy Avenue,Heidi Dennies,Highland,Personal Care Service Agency,Care In Motion Llc,(219)487-2090,IN,46322,,39.6474399,-86.15506151806082
2316,10022 Jenna Lane,Tomichlar Cooper,Indianapolis,Personal Care Service Agency,Care Luxe Llc,(317)292-0087,IN,46239,,39.74755985,-85.98900869233998
2319,7307 Us 31 Ste B,Deepshi Dasaur,Indianapolis,Personal Care Service Agency,Care Source Indy Inc,(445)444-5666,IN,46227,,39.659755,-86.1403692
2323,5438 Barbly Place Bldg 24,Rakeisha Slaughter-Hampton,Indianapolis,Personal Care Service Agency,"Care With Compassion, Llc",(317)414-3053,IN,46237,,39.659902693696,-86.074414375917
2327,488 Rocky Meadow Dr,Bibian Nnatubeugo,Greenwood,Personal Care Service Agency,Careability Llc,(317)903-0067,IN,46143,,39.59284506256456,-86.11788350869742
2331,2911 Percheron Lane,Kristen Blakey,Indianapolis,Personal Care Service Agency,Careful Hands Home Care Llc,(317)419-9499,IN,46227,,39.71261615,-86.11455175
2339,"421 S Second Street, Ste 301",Candice Young,Elkhart,Personal Care Service Agency,"Cares, Llc",(574)404-4832,IN,46516,,38.28433695,-85.81956918424066
2340,8426 Country Club Blvd,Dorian Ursery,Indianapolis,Personal Care Service Agency,Caressing Hearts Home Care,(765)372-6440,IN,46234,,39.7431606,-86.01819822183359
2344,5524 Orth Ct,Jasmine Shotwell,Indianapolis,Personal Care Service Agency,Carewell Llc,(317)340-3241,IN,46221,,39.6908299,-86.2576594
2365,5435 Emerson Ave Suite 225,Brittany Dodd,Indianapolis,Personal Care Service Agency,Caring Hands To Your Door Llc,(463)248-9615,IN,46226,,39.688752935528,-86.082463448568
2389,2020 Sotheby Lane,Sahsa Butler,Indianapolis,Personal Care Service Agency,Ceasers Divine Home Care Llc,(317)282-9666,IN,46239,,39.7421981,-86.0190659
2392,8853 Story Drive,Onyeachu Favour,Camby,Personal Care Service Agency,Center Of Peace Services Llc,(317)531-3273,IN,46113,,39.634856455555806,-86.3289284219313
2419,6538 Sulgrove Place,Felicia Gilbert,Indianapolis,Personal Care Service Agency,Choice Personal Care Service Llc,(317)828-0252,IN,46221,,39.675606,-86.27447234421702
2422,2054 Coldwater Court,Mya Johnson,Indianapolis,Personal Care Service Agency,Circle City Companions Llc,(317)679-1336,IN,46239,,39.740996100000004,-86.02818817829342
2424,5212 Madison Ave Ste G,Brandee Patterson,Indianapolis,Personal Care Service Agency,Cita Angels Homecare Llc,(586)265-0252,IN,46227,,39.6898797,-86.13635772516523
2425,7523 Cole Wood Blvd,Tywana Easley,Indianapolis,Personal Care Service Agency,Citadel Home Care Indy Llc,(317)488-0495,IN,46239,,39.7357456,-86.03453714746131
2432,4056 Magnolia Dr,Micheon Dillon,Franklin,Personal Care Service Agency,Classic Care Home Care Services Llc,(317)531-9040,IN,46131,,39.53850094680469,-86.08973511676052
2439,4523 Hammerstone Court,Jennifer Aikman,Indianapolis,Personal Care Service Agency,Coable Home Care Inc,(317)590-3234,IN,46239,,39.7028684,-86.022489345727
2442,1337 Lake Meadow Dr,Goodluck Coker,Indianapolis,Personal Care Service Agency,Coker Care Llc,(317)658-2505,IN,46217,,39.68368295,-86.18367261510741
2445,3725 E Southport Rd Ste F,Elizabeth Bigham,Indianapolis,Personal Care Service Agency,Comforcare Home Care,(317)664-5136,IN,46227,,39.665235720198,-86.103385277453
2449,6119 Karst Dr,,Indianapolis,Personal Care Service Agency,Comfort Care Companions Llc,Tel: (317)525-7054,IN,46221,,39.6606101,-86.2667085
2450,2338 Ashton Lane,Courtney Hall,Greenwd,Personal Care Service Agency,Comfort Care Home Care Llc,(463)867-8518,IN,46143,,39.583590288704,-86.129843058585
2465,3017 Virginia Ave,Lisa Webb,Connersville,Personal Care Service Agency,Comfort Keepers #259,(765)827-2001,IN,47331,,39.67498340493347,-85.13200072378538
2467,4334 East Third St Suite 200,Lori Hess,Bloomington,Personal Care Service Agency,Comfort Keepers #371,(812)822-0145,IN,47401,,39.164173308098,-86.476989432309
2472,1335 Sadlier Circle East Dr,Lacey Osborn,Indianapolis,Personal Care Service Agency,Comfort Keepers Personal Services,(317)788-0777,IN,46239,,39.7496011,-86.03625197993702
2484,15142 Betton Pl,Anthony Tennille,Fishers,Personal Care Service Agency,Comforting Touch Home Services Llc,(317)992-1917,IN,46037,,39.65018996332463,-86.06626599678772
2489,4341 Security Parkway Suite 101,Amy Kelley,New Albany,Personal Care Service Agency,Community Alternatives Southeast,(812)218-1969,IN,47150,,38.364609440984,-85.806637008516
2491,1335 Sadlier Circle East Drive,Steve Phillips,Indianapolis,Personal Care Service Agency,Community Integration Support Services Llc,(317)429-9885,IN,46239,,39.7496011,-86.03625197993702
2499,7942 Wolfgang Place,Danielle Richardson,Indianapolis,Personal Care Service Agency,Companionship Home Care Llc,(317)250-4368,IN,46239,,39.729161000000005,-86.02611845928028
2509,7242 Kimble Drive,Cassandra Robinson,Indianapolis,Personal Care Service Agency,Compassionate Care At Home Llc,(317)201-9870,IN,46217,,39.6596276,-86.2048315
2521,7615 Stockard Street,Christopher Hardiman,Indianapolis,Personal Care Service Agency,Compassionate Minds Home Care Llc,(317)370-1990,IN,46239,,39.744343799999996,-86.03290079985415
2528,8208 Firefly Way,Aigner Garner,Indianapolis,Personal Care Service Agency,Comprehensive Home Care Llc,(317)970-0315,IN,46259,,39.64976595,-85.9722887445527
2545,1320 W Bloomfield Rd Ste C,Tina Miller,Bloomington,Personal Care Service Agency,Cornerstone Caregiving,(812)714-1427,IN,47403,,39.14585085545465,-86.5760403695756
2550,"5144 E Stop 11 Rd, Ste 22",Hannah Britt,Indianapolis,Personal Care Service Agency,"Cornerstone Caregiving East, Llc",(463)230-7966,IN,46237,,39.651247870287,-86.081554491327
2553,3318 Kent Drive,Wisdom Femi Ogunyemi,Brownsburg,Personal Care Service Agency,Cornwine Home Care Llc,(317)603-6878,IN,46112,,38.2910267,-85.54748498436571
2559,7876 Housefinch Lane,Anthony Turner,Indianapolis,Personal Care Service Agency,"Covenant Patient Care, Llc",(317)989-5527,IN,46239,,39.70631605,-86.02753575024822
2567,1373 Brookside Drive,Jennifer Eubanks,Columbus,Personal Care Service Agency,Crossroads Care Services Llc,(812)373-6115,IN,47201,,39.15073999834528,-85.94064953814116
2578,6067 Decatur Blvd,Jennifer Maggard,Indianapolis,Personal Care Service Agency,Damar Services Inc,(317)856-5201,IN,46241,,39.67301795,-86.30221862654525
2582,13852 N Hawkers Hill Drive,Damilola Lawal Bankole,Camby,Personal Care Service Agency,Dayel Homecare Services Llc,(317)801-4519,IN,46113,,39.629026348771816,-86.31250151175887
2583,6347 Furnas Rd,Prince Ekhosuehi,Indianapolis,Personal Care Service Agency,Dayz Home Care Services Llc,(317)893-7011,IN,46221,,39.6808166,-86.27115529227126
2605,626 Crossfield Dr,Veronica Petty,Indianapolis,Personal Care Service Agency,Desirree Dedicated Home Care Llc,(317)970-3683,IN,46239,,39.760298649999996,-85.98303264437902
2607,1787 Feather Reed Ln,Channelle Parker,Greenwd,Personal Care Service Agency,Destined For A Purpose Personal Care Service Llc,(317)628-3390,IN,46143,,39.588285590166,-86.091888839868
2614,6159 Black Oaks Way,Cassandra Williams,Indianapolis,Personal Care Service Agency,Devoted Harmony Homecare Llc,(317)362-1209,IN,46237,,39.685038649999996,-86.05942253402142
2615,"3090 N Morton Street, Lot 78",Debora Slater,Franklin,Personal Care Service Agency,Devoted Home Care Llc,(317)494-6228,IN,46131,,39.4920081,-86.0665478
2618,9683 Trail Drive,Ashley Johnson,Avon,Personal Care Service Agency,Devoted To You Llc,(317)777-2968,IN,46123,,39.65138405054729,-86.05639547714787
2632,7425 Frank Ott Rd,Virginia Jones,Georgetown,Personal Care Service Agency,Diversified Nurse Consultants Llc,(812)913-4308,IN,47122,,38.301824816157854,-85.94270773963724
2637,7499 Williams St,Devena Buntyn,Merrillville,Personal Care Service Agency,Divine Family Care Llc,(219)407-2993,IN,46410,,39.75702747943873,-85.77835813437231
2642,2821 Mozart Way,Keiandra Jones,Indianapolis,Personal Care Service Agency,Divine Key Llc,(317)478-1610,IN,46239,,39.72815765,-86.0275322906198
2656,8337 Burket Way,Joshua Atilola,Camby,Personal Care Service Agency,Dominion Favour Homecare Llc,(463)201-9818,IN,46113,,39.64190655,-86.30877115753809
2660,4985 North Franklin Road,Tywan Green,Indianapolis,Personal Care Service Agency,Dorien Compassionate Homecare Llc,(317)649-0410,IN,46226,,39.2241595,-86.64072424879808
2661,8631 New Heritage Drive,Trina Hawkins-Staten,Indianapolis,Personal Care Service Agency,Dots Loving Homecare Llc,(317)697-0477,IN,46239,,39.699739949999994,-86.01421641851157
2667,7957 Harshaw Drive,Stephanie Pettigrew,Indianapolis,Personal Care Service Agency,"Dreamers Home Care, Llc",(317)801-4792,IN,46239,,39.73299005,-86.02574550879011
2675,820 W 17Th St Ste 7,Danielle Willis,Bloomington,Personal Care Service Agency,"Dynasty Haven, Llc",(812)369-4076,IN,47404,,39.17908386744,-86.542411471874
2685,1039 Holmdale Drive,Ciera Scott,Indianapolis,Personal Care Service Agency,Ease Your Mind Home Care Llc,(317)550-0171,IN,46239,,39.75729653716542,-85.98651189072463
2687,110 East Market Street,Tracey May,New Albany,Personal Care Service Agency,"Ec4F Home Care, Inc",(812)670-3500,IN,47150,,38.2845098,-85.8230461
2696,3925 E Hagan Street Suite 202,Kari Fletcher,Bloomington,Personal Care Service Agency,Elara Caring,(812)231-5085,IN,47401,,39.163009867344,-86.479649366222
2701,2248 Maple Stone Lane,Martha Njeri,Greenwood,Personal Care Service Agency,Elevate Life Care Llc,(317)985-4866,IN,46143,,39.58259524796572,-86.13329170784097
2714,1009 14Th St Suite B,William Deckard,Bedford,Personal Care Service Agency,Elite Personal Care Llc,(812)675-0384,IN,47421,,38.861237200000005,-86.48473767500971
2721,2253 Hampton Drive,Alida Faton,Franklin,Personal Care Service Agency,Elom Care Llc,(463)202-1160,IN,46131,,39.50539375908152,-86.03998382960424
2726,8063 Madison Ave #1324,Hermon Tesfaldet,Indianapolis,Personal Care Service Agency,Emmanuel Home Care Llc,(317)603-8966,IN,46227,,39.648414773329,-86.121343342052
2729,764 Greenwood Springs Drive Apt 1208,Myra Anderson,Greenwd,Personal Care Service Agency,"Empathykare Home Care, Llc",(765)823-0896,IN,46143,,39.62954045,-86.07699829807453
2734,1624 Laurel Lane,Chirag Patel,Munster,Personal Care Service Agency,Enlight Homecare Services,(630)297-5994,IN,46321,,39.645692499999996,-86.1891880242091
2741,6048 Brockworth Drive F,Donyah Williams,Indianapolis,Personal Care Service Agency,Equality Love Homecare Llc,(317)868-7731,IN,46203,,39.720198100000005,-86.06200826150646
2742,2919 W Bargello Ln,Nerlie Saintil,Monrovia,Personal Care Service Agency,Ervochmida Home Care,(317)721-3626,IN,46157,,39.585940050000005,-86.48347584999999
2758,4708 Angelica Drive,Temi Wright,Indianapolis,Personal Care Service Agency,Evelyn Wells Llc,(317)661-1330,IN,46237,,39.69915175,-86.05849421562499
2761,5314 Camden Lane,Krystle Jacquin,Greenwd,Personal Care Service Agency,Everhome Care Llc,(317)264-9801,IN,46143,,39.571480982426,-86.204270088232
2775,494 S Emerson Ave Suite I1,Emmah Muita,Greenwood,Personal Care Service Agency,Executive Home Care Llc,(317)273-9316,IN,46143,,39.60973661418,-86.082689807938
2789,2121A W Mill Rd,Tamika Liebhart,Evansville,Personal Care Service Agency,Faith Personal Care Inc,(812)431-8424,IN,47720,,38.4314495,-86.2233121
2799,3101 N Greenriver Rd Ste 240,Rashelle Hammack,Evansville,Personal Care Service Agency,Family First Companion Care,(812)401-4311,IN,47715,,38.005951466129,-87.492210577093
2800,6199 Palomar Circle,Jamie Kennedy,Indianapolis,Personal Care Service Agency,Family First Home Care Llc,(317)416-8089,IN,46234,,39.74396429822965,-86.02749543226189
2814,1901 Jessica Court,Ericka Halbert,Indianapolis,Personal Care Service Agency,Familyhomecare Llc,(317)513-9179,IN,46239,,39.7450507,-85.98683714704563
2816,3341 Carica Dr,Ashley Beech,Indianapolis,Personal Care Service Agency,Fancys Home Care Llc,(317)675-7027,IN,46203,,39.7190911,-86.059274
2823,2951 Wolfgang Drive,Trina Robinson,Wanamaker,Personal Care Service Agency,Favored Home Care Llc,(317)653-9511,IN,46239,,39.7258532,-86.03076876152173
2838,6258 Whitaker Farm Drive,Ronald Kemp,Indianapolis,Personal Care Service Agency,First Generation Home Care Llc,(317)657-0235,IN,46237,,39.65314325,-86.05814024676418
2857,7610 Bolero Drive,Samuel Massaley Ii,Camby,Personal Care Service Agency,"Fomas Home Care Services, Llc",(317)201-2462,IN,46113,,39.653072449999996,-86.31026160077269
2878,"5401 S East Street, Ste 207 D",Brianna Malone,Indianapolis,Personal Care Service Agency,Four Seasons Home Care Llc,(463)205-9777,IN,46227,,39.687839802616,-86.148658863762
2883,5732 Matteson Drive,September Northington,Indianapolis,Personal Care Service Agency,From Our Hearts To Your Home Llc,(317)695-4969,IN,46235,,39.68621265,-86.06794938221046
2888,7646 Justin Lane,Rose Cochran,Indianapolis,Personal Care Service Agency,Fulfill Your Expectations Home Care Llc,(317)473-4277,IN,46219,,39.6567938,-86.02706276124448
2890,8054 States Bend Dr,Leatrice Breedlove,Indianapolis,Personal Care Service Agency,G&S Homecare Llc,(317)557-7800,IN,46239,,39.71997865,-86.02393473809234
2907,702 Greenwood Springs Drive #2314,Tiea Winston Anderson,Greenwood,Personal Care Service Agency,Gentle Care Services Llc,(317)319-1220,IN,46143,,39.59085195,-86.10860295
2923,9607 Gull Lake Drive,Alexis Perkins,Indianapolis,Personal Care Service Agency,Genuine Hands Home Care Llc,(317)384-8738,IN,46239,,39.75790845,-85.99762330404768
2934,3332 Brandenburgh Blvd,Jennifer Armstead,Indianapolis,Personal Care Service Agency,Gilmera's Touch Home Care Llc,(317)985-0884,IN,46239,,39.72007065,-86.02934709695178
2941,7424 S Sherman Drive,Gloria Romanchik,Indianapolis,Personal Care Service Agency,Gloria's Home Care Service Inc,(219)308-7228,IN,46237,,39.6589189,-86.10180853130491
2952,3621 Calhoun St,Talesha Ford,Indianapolis,Personal Care Service Agency,Golden Compassion Home Care Llc,(463)600-9934,IN,46203,,39.740121,-86.1045969
2954,56 South Park Blvd,Terri Dearing,Greenwood,Personal Care Service Agency,Golden Heart Caregivers Llc,(317)871-2600,IN,46143,,39.6205124,-86.0801329
2958,6938 Devinney Lane,Shamika Carter,Indianapolis,Personal Care Service Agency,Golden Milestone Care Solutions Llc,(317)499-7554,IN,46221,,39.6634741,-86.25681973860102
2962,10646 Pavilion Dr,Megan Hines,Indianapolis,Personal Care Service Agency,Good Deeds Homecare Llc,(317)690-1256,IN,46259,,39.6525843,-85.97755324989024
2975,2243 Wisdoms Court,Ben Donkor,Avon,Personal Care Service Agency,Grace Assured Home Care Llc,(317)717-7843,IN,46123,,39.71740575,-86.12213688458917
2980,8686 Madison Ave Ste C,Sui Doi,Indianapolis,Personal Care Service Agency,Grace Homecare Llc,(317)893-4527,IN,46227,,39.64008175,-86.11951721292661
2981,4238 Viva Lane,Emmanuel Kolleh,Indianapolis,Personal Care Service Agency,Grace Homecare Services Llc,(317)945-0225,IN,46239,,39.7063637,-86.03450548208956
2985,5251 South East St Suite 3,Priscilla Mukuba,Indianapolis,Personal Care Service Agency,Graceful Home Care Llc,(978)237-1093,IN,46227,,39.689875,-86.14809385839963
3003,665 Martin John Rd Ne,Stephanie Riggle,Lanesville,Personal Care Service Agency,Granny Nannies,(812)572-4428,IN,47136,,38.208649395792,-85.967307510412
3031,545 Christy Dr Ste 1130,Jodeci Henderson,Greenwood,Personal Care Service Agency,Guardian Gems Home Care Llc,(317)779-4924,IN,46143,,39.6332683,-86.0953504
3033,4013 Denali Drive,Jennitta Nicholson Shanklin,Indianapolis,Personal Care Service Agency,Guardian Home Care Services Llc,(317)668-8559,IN,46235,,39.6590954,-86.0980863268876
3064,8745 Winding Ridge Road,Alexandria Fox,Indianapolis,Personal Care Service Agency,Happy Helpers Personal Care Llp,(463)280-3257,IN,46217,,39.637705249999996,-86.19385219423691
3065,749 Commerce Pkwy West Dr Suite B,Manjit Kaur,Greenwood,Personal Care Service Agency,Happy Home Care Inc,(463)283-3060,IN,46143,,39.60734262143,-86.066126884538
3068,8119 Corktree Drive,Peter Mbuuke,Indianapolis,Personal Care Service Agency,Happy Life Home Care Llc,(317)965-0668,IN,46239,,39.7162799,-86.02324142993596
3073,8352 Bravestone Way,Sandra Talleyrand,Indianapolis,Personal Care Service Agency,Hardison Touch Home Care Llc,(917)215-2947,IN,46239,,39.73397945,-86.01902095698628
3088,9711 Treyburn Green Way,Paula Hayes,Indianapolis,Personal Care Service Agency,Hatties Personal Touch Home Care Llc,(317)414-9173,IN,46239,,39.7556196,-85.99522888277366
3100,450 S State Road 135,Edward Moore Jr,Greenwood,Personal Care Service Agency,Healing Hands Homecare Agency Llc,(317)300-0604,IN,46142,,39.615218549999994,-86.14445840146732
3103,7547 Mather Lane,Sharita Bundoo,Indianapolis,Personal Care Service Agency,Healing Haven Homecare Solutions Llc,(812)302-2535,IN,46239,,39.7035604,-86.03344405393767
3109,8915 S Keystone Ave,Amanda Stout,Indianapolis,Personal Care Service Agency,Healing Life Home Care Llc,(317)797-3556,IN,46227,,39.6368024,-86.12078560662343
3127,5233 Potomac Lane,Abala Koma Tassike,Greenwood,Personal Care Service Agency,Heart In Good Hand Llc,(317)974-9907,IN,46142,,39.609213499999996,-86.20063135000001
3133,10857 Delphi Dr,Pamela Sykes,Camby,Personal Care Service Agency,Heart To Heart Personal Care Services Llc,(317)992-4123,IN,46113,,39.636844132376105,-86.32779122436004
3142,5450 Mary Ann Lane,Nicole Green,Merrillville,Personal Care Service Agency,Heartfilled Hands Llc,(219)238-4535,IN,46410,,39.68761645,-86.06546522051717
3149,1927 Lisa Walk Dr,Pauline Jones,Indianapolis,Personal Care Service Agency,Hearts Haven Home Care Llc,(317)869-9170,IN,46227,,39.6525405,-86.12556935
3150,6545 Newstead Drive,Naomi Pannell,Indianapolis,Personal Care Service Agency,Hearts N Harmony Home Care Llc,(765)268-9957,IN,46217,,39.67000415,-86.18904580043792
3165,104 Brentview Ct,Tabitha Burns,Charlestown,Personal Care Service Agency,Heaven's Halo Llc,(502)348-4739,IN,47111,,38.4642432,-85.6694902
3166,940 Monteray Rd,Jorden Boone,Greenwood,Personal Care Service Agency,Heavenly Grace Home Care Llc,(317)402-6457,IN,46143,,39.6036959,-86.0978436
3167,7850 Bullfinch Lane,Julliet Kofa,Indianapolis,Personal Care Service Agency,Heavenly Healing Homecare Llc,(317)724-1968,IN,46239,,39.70546415,-86.02778398854
3171,8332 Ossian Ct,Ibironke Hampton,Camby,Personal Care Service Agency,Heebee Homecare Agency Llc,(301)634-6594,IN,46113,,39.64220096804,-86.311691852794
3176,225 S Emerson Avenue Suite 195,Tajah Glover,Greenwood,Personal Care Service Agency,Help At Home Llc,(317)884-7266,IN,46143,,39.614241983003,-86.082589854387
3179,2325 Green Valley Road Ste 103,Taylor Hoffman,New Albany,Personal Care Service Agency,Help At Home Llc,(812)941-9700,IN,47150,,38.34539781415676,-85.8365392928387
3186,1425 Corporate Way,Ally Nierman,Seymour,Personal Care Service Agency,Help At Home Llc,(812)524-7110,IN,47274,,38.9483901,-85.9087558
3187,1515 Union Street,Mary Loney,Lafayette,Personal Care Service Agency,Help At Home Llc,(317)233-7492,IN,47904,,39.1740227,-86.5521653
3196,7208 Inland Ct,Terry Graham,Georgetown,Personal Care Service Agency,Helping Hands Companion Services,(502)426-9783,IN,47122,,38.327202312568,-85.941127303467
3202,8502 Brookville Rd Ste 7,Dadeh Yarmento,Indianapolis,Personal Care Service Agency,Helping Hands Senior Living,(574)334-2448,IN,46239,,39.74913885,-86.01580550405748
3221,2480 Dawson St,Katrina Stewart,Indianapolis,Personal Care Service Agency,Hinkle Home Care Llc,(317)518-9391,IN,46203,,39.7325613,-86.1284169
3224,"308 E 21St Ave, Office 1",Crystal Mayberry,Gary,Personal Care Service Agency,Hishealinghands Llc,(219)802-4285,IN,46407,,39.7274984,-86.10680418325222
3229,3737 Laurel Cherry Lane,Ferrin Parham,Indianapolis,Personal Care Service Agency,Holy Spirit Personal Home Care,(317)507-4553,IN,46239,,39.7122729,-86.10072678560172
3245,158 Jefferson Street N Suite B,Joanie Hayes,Nashville,Personal Care Service Agency,Home Helpers Of Southern Indiana,(812)988-6832,IN,47448,,39.21049535788763,-86.24816045310729
3258,633 Library Park Dr Ste G,Michael Bunnell,Greenwood,Personal Care Service Agency,Home Instead Senior Care,(317)888-4300,IN,46142,,39.60682515810455,-86.15732682627869
3259,1355 W Bloomfield Rd Ste 2,Danielle Blake,Bloomington,Personal Care Service Agency,Home Instead Senior Care,(812)961-2222,IN,47403,,39.16389465,-86.58115527298753
3260,635 Metro Ave,Rachel Sherwood,Evansville,Personal Care Service Agency,Home Instead Senior Care,(812)471-0050,IN,47715,,37.9796881,-87.4796666
3268,6339 Pinebark Place,Kenny Krebs,Indianapolis,Personal Care Service Agency,Home Of My Own Llc,(463)336-2128,IN,46217,,39.673564918179,-86.199881931596
3269,2735 Washington Ave,Leah Schutter,Vincennes,Personal Care Service Agency,Home Sweet Home Care,(877)281-5777,IN,47591,,38.6873338,-87.4952271
3279,124 Oak Forrest Drive,Lindsay Gentis,Bluffton,Personal Care Service Agency,Homecourt Home Care,(260)333-1114,IN,46714,,38.288505614270726,-87.06417870670234
3281,8245 Wheatfield Court,Jacqueline Achoh,Camby,Personal Care Service Agency,Homelights Care Llc,(317)418-3965,IN,46113,,39.6431865,-86.30790035008107
3288,3660 Central Avenue,Mason Rister,Columbus,Personal Care Service Agency,Homewell Care Services,(859)303-6018,IN,47203,,39.20194880807954,-85.90590501464479
3294,6467 Furnas Road,Clarissa Houston,Indianapolis,Personal Care Service Agency,Honest Homecare Services Llc,(317)767-5548,IN,46221,,39.68177725,-86.27317802706784
3295,9732 Evening Sky Way,Victoria Porter,Indianapolis,Personal Care Service Agency,Honest Touch And Love Home Care Llc,(317)737-0537,IN,46239,,39.70683789643512,-85.99553220818068
3302,564 Graves Addition Road,Brittany Kern,Avoca,Personal Care Service Agency,Hoosier Helping Hands Llc,(812)508-6688,IN,47420,,38.9154901,-86.551877
3323,5530 S Arlington Ave,Stephanie Goddard,Indianapolis,Personal Care Service Agency,Humble Hands At Home Llc,(317)445-9099,IN,46237,,39.686460800000006,-86.06394569477902
3335,1263 Odell Ln,Crystal Willis,Greenwood,Personal Care Service Agency,Ida's Home Care Llc,(317)794-6979,IN,46143,,39.5990506,-86.110894
3345,6920 S East St Ste B,Taleia Powell,Indianapolis,Personal Care Service Agency,In Good Faith Home Care,(800)789-6005,IN,46227,,39.665271149999995,-86.14851565045281
3353,2436Asbury St,Cecara Durgan,Indianapolis,Personal Care Service Agency,In Loving Hands Home Care Llc,(317)827-3849,IN,46203,,39.73354439545,-86.129265017157
3362,8282 S Nineveh Rd,Melissa Rutherford,Nineveh,Personal Care Service Agency,Independence Personal Care Llc,(317)933-3310,IN,46164,,39.450405,-86.5730759
3374,660 Yeagy Road,Christopher Ikemire,Greenwood,Personal Care Service Agency,Individualized Care Services Llc,(463)867-7433,IN,46142,,39.623401361840095,-86.1949232
3376,1340 Gleneagle Drive,Latricia Graves,Indianapolis,Personal Care Service Agency,"Indy Home Assist, Llc",(317)834-7177,IN,46239,,39.75167655,-85.98746041772918
3398,4508 Je 6Th Ave,Andrea Hooker,Gary,Personal Care Service Agency,Insight To Love Llc,(475)273-9593,IN,46403,,39.05020400203555,-85.52827952692002
3400,915 Curlew Lane,Debra P Davis,Greenwood,Personal Care Service Agency,Inspirational Touch Home Care Llc,(317)504-4005,IN,46143,,39.5952384,-86.0843045
3415,373 Meridian Parke Lane Suite A-1,Ashley Warrenburg,Greenwood,Personal Care Service Agency,Interim Homestyles Services Of Indianapolis,(317)755-1687,IN,46142,,39.619601227853,-86.16224858006
3416,3200 N National Rd,Ashley Warrenburg,Columbus,Personal Care Service Agency,Interim Homestyles Services Of Se Indiana,(812)799-1846,IN,47201,,39.2356,-85.92776
3422,7740 Colewood Blvd,Lashonda Lee,Indianapolis,Personal Care Service Agency,Iris Home And Personal Care,(317)201-2340,IN,46239,,39.734582783565,-86.030111857522
3425,"5233 S Old State Rd 37, Office D",Ali Alani,Bloomington,Personal Care Service Agency,Islamic Home Care Of America Llc,(812)929-6094,IN,47401,,38.27639272501903,-86.47344852710278
3435,"720 Executive Park Dr, Ste 1800",Felicia Suberu,Greenwood,Personal Care Service Agency,Jasmine Forever Care Services Llc,(765)558-1947,IN,46143,,39.605566194870924,-86.1102386274753
3445,6060 Brockworth Drive Apt #G,Jessica Holder,Indianapolis,Personal Care Service Agency,Jess Angels Homecare Llc,(317)929-9876,IN,46203,,39.7205738,-86.06200812609424
3447,3149 Carson Ave,Tasha Anderson,Indianapolis,Personal Care Service Agency,Jessie's Hands Home Care Services Llc,(463)291-9091,IN,46227,,39.72022845,-86.13373945000001
3459,7904 Fox Glen Dr,Stacy Carey,Indianapolis,Personal Care Service Agency,Journee's & Company Llc,(317)603-6655,IN,46239,,39.733710099999996,-86.02748387600042
3460,"445 5Th Street, Suite B",Jenny Waltz,Columbus,Personal Care Service Agency,"Journey North Care Management, Llc",(812)343-2958,IN,47201,,39.203455656030044,-85.92182490023487
3461,5230 South Illinois Street,Tracey Gray,Indianapolis,Personal Care Service Agency,Journey To Success Home Care Llc,(317)640-9011,IN,46217,,39.689885399999994,-86.15996853602573
3463,8441 Wheatfield Drive,Rahsheda Clark,Camby,Personal Care Service Agency,Journis Pathway Residential Services Llc,(317)478-5887,IN,46113,,39.6404122,-86.30785466656118
3468,6619 Eagles Nest Lane,Telisha Berry,Mc Cordsville,Personal Care Service Agency,Joyful Life Limited Liability Company,(317)496-1540,IN,46055,,38.74146261806045,-86.74940676226147
3481,608 Stone Crossing Place Apt B,Channell Mason,Indianapolis,Personal Care Service Agency,Just Like Family Home Care Llc,(317)439-7127,IN,46227,,39.670809042144334,-86.14746283691738
3486,2511 Redland Lane,Wykeika Whitt,Indianapolis,Personal Care Service Agency,K And R Hoosier Home Care Llc,(317)412-7322,IN,46217,,39.6695447,-86.202874863512
3489,2633 Grant Line Rd,Kelley Troutman,New Albany,Personal Care Service Agency,Kaiser Home Support Services Inc,(812)945-6868,IN,47150,,38.34366745,-85.81964118415449
3492,5435 Emerson Way Ste 340,Victoria Washington,Indianapolis,Personal Care Service Agency,Kare For You Home Care Services Llc,(317)478-3224,IN,46226,,39.66327245,-86.25518576841856
3494,3026 Percheron Lane,Quiana Harlin,Indianapolis,Personal Care Service Agency,Karing Hearts Homecare Llc,(765)350-9110,IN,46227,,39.71159645,-86.11256276711202
3495,4246 Fox Harbour East Dr,Angaleak Bush,Indianapolis,Personal Care Service Agency,Karing Warm Hearts Home Care Llc,(317)388-5646,IN,46227,,39.7039849,-86.1163593
3497,1633 Villa Avenue,Arria Suggs,Indianapolis,Personal Care Service Agency,Kay's Home Of Compassion Llc,(317)332-2237,IN,46203,,39.732995450000004,-86.13122530040118
3505,3355 Carpenter Court,Diamond Joiner,Indianapolis,Personal Care Service Agency,Keeping Comfort Home Services Llc,(317)381-1901,IN,46203,,39.74229525,-86.10867881633001
3520,3230 Cork Bend Drive,Anitra King,Indianapolis,Personal Care Service Agency,Kind Hearts Home Care Llc,(317)540-3457,IN,46239,,39.721939,-86.02727830713417
3523,109 W 86Th Avenue,Erika Barefield,Merrillville,Personal Care Service Agency,"Kindred Spirits Home Care, Llc",(219)472-8167,IN,46410,,38.2748633,-85.7418507135404
3527,8325 Burket Way,Veltmon Weah,Camby,Personal Care Service Agency,Kings & Queens Home Care Llc,(317)970-6290,IN,46113,,39.641906500000005,-86.30840095899671
3530,7157 Moultrie Drive,Sorsor Kerbeh,Indianapolis,Personal Care Service Agency,Kj Care Llc,(973)280-4862,IN,46217,,39.66077675,-86.2052695228894
3532,5150 E Stop 11 Rd Suite 9,Kashindi Msambilwa,Indianapolis,Personal Care Service Agency,Kobi Home Care Services Llc,(317)519-5285,IN,46237,,39.6375052,-86.07842050830084
3554,7651 Lara Lee Drive,Samuel Dodson,Indianapolis,Personal Care Service Agency,Leading With A Purpose Home Care Llc,(317)941-5856,IN,46239,,39.70593545,-86.03134815531388
3562,4855 South Emerson Avenue Suite 202,Brooke Baise,Indianapolis,Personal Care Service Agency,Legacy Caregiving,(317)374-2593,IN,46203,,39.6972993,-86.08151110198364
3567,5647 James Blair Drive,Ashley King-Clemmons,Indianapolis,Personal Care Service Agency,Legacy Personal Care Services Llc,(317)503-4773,IN,46234,,39.68611735,-86.05908747770239
3575,6731 Valley Forge Ln,Lenore Waters-Tyler,Indianapolis,Personal Care Service Agency,Lenora''s Trustworthy Home Care Llc,(317)832-2384,IN,46237,,39.66949875,-86.05313625185613
3588,5214 S State Road 9,Frances Gallahger,Greenfield,Personal Care Service Agency,Life Choice Llc,(317)586-8229,IN,46140,,39.6734558,-86.24932705797468
3594,8725 Shelby Street,Jessica Lindsay,Indianapolis,Personal Care Service Agency,Lifespan Companion Care Llc,(317)333-8240,IN,46227,,39.6385911,-86.13899905984252
3598,1401 Spring St,Aspen Thompson,Jeffersonville,Personal Care Service Agency,Lillian Ashby Homecare Llc,(812)697-0368,IN,47130,,38.33028565,-85.69826489585029
3599,2911 Angeline Drive,Daphane Buggs,Indianapolis,Personal Care Service Agency,Lillie's Angels Home Care Llc,(317)840-3470,IN,46203,,39.725772649999996,-86.06212806917672
3606,328 Albany Street,Jessica Smith,Indianapolis,Personal Care Service Agency,Little Guy With Big Dreams Home Care Llc,(317)492-3091,IN,46225,,39.723642,-86.153067
3613,1490 W Main St,Latoya Lamm,Mitchell,Personal Care Service Agency,Living Well Home Care,(812)849-6000,IN,47446,,38.7315598,-86.4852377
3636,6326 Rucker Road Suite H,Latonya Boyd,Indianapolis,Personal Care Service Agency,Love Help Care Llc,(317)668-7555,IN,46235,,39.6375052,-86.07842050830084
3638,6304 Emerald Springs Dr,Ingrid Wells,Indianapolis,Personal Care Service Agency,Love Is Care Llc,(317)453-6608,IN,46221,,39.67249635,-86.27404900946223
3650,5251 S East Street Suite 214A,Eyshulai Brown,Indianapolis,Personal Care Service Agency,Loveyn Personal Home Care Llc,(317)681-0765,IN,46227,,39.689875,-86.14809385839963
3668,3139 Black Forest Ln,Thelma Franklin,Indianapolis,Personal Care Service Agency,Loving Moments Homecare Services Llc,(317)625-4147,IN,46239,,39.7229099,-86.0315433
3680,2322 S Randolph St,Laveda Logan,Indianapolis,Personal Care Service Agency,Lsi Homecare Llc,(317)918-8408,IN,46203,,39.7354278,-86.1268504343301
3694,3130 Shadow Brook Drive,Sherelle Jackson,Indianapolis,Personal Care Service Agency,Lynn's Personal Service Agency Inc,(877)973-3723,IN,46214,,39.658056450000004,-86.21109350421746
3698,2222 Dunewood Place Apt 536,Yanarah Mentor,Indianapolis,Personal Care Service Agency,M Y Companion Care Llc,(561)787-4004,IN,46217,,39.66014495,-86.19892790016839
3699,2550 Greythorne Drive,Mary Black,Indianapolis,Personal Care Service Agency,M&M Personal Care Services,(317)751-5549,IN,46239,,39.7329004,-86.03344165845249
3702,7149 Southeastern Avenue,Joann Williams,Indianapolis,Personal Care Service Agency,Mae Flowers Homecare Llc,(317)992-5816,IN,46239,,39.70978795,-86.04125947233914
3710,7662 Us 31 S,Mykeshia Burton,Indianapolis,Personal Care Service Agency,Magnolia Angels Llc,(317)220-8499,IN,46227,,39.65532775,-86.14155815754198
3713,5894 Antoneli Dr,London Thomas,Indianapolis,Personal Care Service Agency,Making A Difference Home Care Llc,(317)840-1681,IN,46237,,39.68637725,-86.06563304448207
3714,6024 Copeland Mills Drive,Nicole Mcneil,Indianapolis,Personal Care Service Agency,Making A Difference Home Care Services Llc,(317)551-0118,IN,46221,,39.675922650000004,-86.26552858103483
3730,189 Meadowview Lane,Zaza Mulbah,Greenwood,Personal Care Service Agency,Marzaz Home Care Llp,(317)300-1029,IN,46142,,39.616965645029794,-86.13920202379308
3732,1868 S Reilly Lane,Neache Hood,New Palestine,Personal Care Service Agency,"Mattieida's Peace, Llc",(317)617-8104,IN,46163,,39.758282722139995,-85.89483184147838
3748,2869 Ludwig Drive,Antonia Phillips,Indianapolis,Personal Care Service Agency,Mending Bridges Home Care Services,(317)851-6710,IN,46239,,39.7272543,-86.0289531910625
3766,7521 Derek Drive,Juliet Okonkwo,Camby,Personal Care Service Agency,Miracle Hands Home Care Llc,(317)332-7385,IN,46113,,39.65379365,-86.3107212254344
3786,5111 Sandy Forge Drive,Candace Thomas,Indianapolis,Personal Care Service Agency,More Than You See Home Care Llc,(317)828-8859,IN,46221,,39.678368250000005,-86.24813060369917
3790,5201 Mesa Verde Drive,Danielle Freeman,Indianapolis,Personal Care Service Agency,Mother's Gifted Hands Llc,(317)625-6702,IN,46237,,39.69217930000001,-86.0544117355991
3791,4937 Jamestown Trace,Danille Freeman,New Palestine,Personal Care Service Agency,Mother's Gifted Hands Llc,(317)625-6702,IN,46163,,39.76217311668005,-85.89418097541369
3794,1734 Irish Lake Lane,Doushan Babb,Indianapolis,Personal Care Service Agency,Ms Bee's Helping Hands Home Care Llc,(317)662-9990,IN,46239,,39.74700938663685,-85.97658410147584
3810,6611 Owls Head Drive Apt B,Leangela Hardiman,Indianapolis,Personal Care Service Agency,Naima Homecare Services Llc,(317)531-2249,IN,46217,,39.66928865,-86.200755346443
3815,8043 Fisher Bend Drive,Sierrah Lewis,Indianapolis,Personal Care Service Agency,"Naomi's Loving Home Care, Llc",(317)381-1410,IN,46239,,39.7210453,-86.02411425346503
3821,202 Stoneview Lane,Michelle Laflower,Mooresville,Personal Care Service Agency,Nautical Home Care Llc,(317)414-7646,IN,46158,,39.606204,-86.3523735
3834,"2905 State St, Ste C",Myra Hurt,Columbus,Personal Care Service Agency,"New Beginnings At Home, Llc",(812)407-2998,IN,47201,,39.191527312,-85.890407978629
3836,3420 Cobblefield Drive,Dawn Owens,Evansville,Personal Care Service Agency,New Dawn Compassionate Care Llc,(812)431-9100,IN,47711,,38.031087968939,-87.50711638317
3842,725 Wall St,Jody Heazlitt,Jeffersonville,Personal Care Service Agency,New Hope Services Inc,(812)288-8248,IN,47130,,38.6823376,-85.79947368217634
3843,237 Six Pine Ranch Rd,Jimmy Ryan,Batesville,Personal Care Service Agency,New Horizons Rehabilitation Inc,(812)934-4528,IN,47006,,39.313010380047295,-85.20818103871048
3848,930 Leisure Lane,Kenneth Barrett,Greenwood,Personal Care Service Agency,"New Solutions For Better Results, Corp",(317)493-5814,IN,46142,,39.62751207767965,-86.17207583925087
3853,10325 Whispering Way,Toi Mcgregor-Ahmad,Indianapolis,Personal Care Service Agency,Next Level Homecare Agency Corp,(317)661-0224,IN,46239,,39.7385972,-85.98344896900673
3859,6510 Caressa Way,Latosha Teague,Indianapolis,Personal Care Service Agency,No Place Like Home Care Services Llc,(765)240-6752,IN,46259,,39.6738682,-86.01804800811345
3863,"5222 South East Street, Suite #B6",Elia Enci,Indianapolis,Personal Care Service Agency,"Noble Hearts Agency, Llc",(317)672-4819,IN,46227,,39.690912850000004,-86.1495924482987
3877,8513 Vanguard Lane,Tekeyah Willis,Indianapolis,Personal Care Service Agency,Nurtureme Homecare Llc,(317)649-2150,IN,46239,,39.7336793,-86.0167629
3887,3328 Carica Drive,Johnay Douglas,Indianapolis,Personal Care Service Agency,Nurturing Lives Homecare  Llc,(317)628-9062,IN,46203,,39.71943675,-86.05975945814058
